city_ascii,lat,lng,country,capital,population
Tokyo,35.687,139.7495,Japan,primary,37785000
Jakarta,-6.175,106.8275,Indonesia,primary,33756000
Delhi,28.61,77.23,India,admin,32226000
Guangzhou,23.13,113.26,China,admin,26940000
Mumbai,19.0761,72.8775,India,admin,24973000
Manila,14.5958,120.9772,Philippines,primary,24922000
Shanghai,31.2286,121.4747,China,admin,24073000
Sao Paulo,-23.5504,-46.6339,Brazil,admin,23086000
Seoul,37.5667,126.9833,"Korea, South",primary,23016000
Mexico City,19.4333,-99.1333,Mexico,primary,21804000
Kolkata,22.5675,88.37,India,admin,21747000
Cairo,30.0444,31.2358,Egypt,primary,20296000
Karachi,24.86,67.01,Pakistan,admin,20249000
Dhaka,23.7289,90.3944,Bangladesh,primary,19134000
New York,40.6943,-73.9249,United States,,18832416
Beijing,39.9067,116.3975,China,primary,18522000
Bangkok,13.7525,100.4942,Thailand,primary,18007000
Shenzhen,22.5415,114.0596,China,minor,17619000
Moscow,55.7506,37.6175,Russia,primary,17332000
Buenos Aires,-34.6036,-58.3814,Argentina,primary,16710000
Lagos,6.455,3.3841,Nigeria,minor,16637000
Bangalore,12.9789,77.5917,India,admin,15386000
Ho Chi Minh City,10.7756,106.7019,Vietnam,admin,15136000
Osaka,34.6939,135.5022,Japan,admin,15126000
Chengdu,30.66,104.0633,China,admin,14645000
Istanbul,41.0136,28.955,Turkey,admin,14441000
Tehran,35.6889,51.3897,Iran,primary,14148000
Kinshasa,-4.3219,15.3119,Congo (Kinshasa),primary,12836000
Rio de Janeiro,-22.9111,-43.2056,Brazil,admin,12592000
Chennai,13.0825,80.275,India,admin,12395000
Xi'an,34.2611,108.9422,China,admin,12328000
Lahore,31.5497,74.3436,Pakistan,admin,12306000
Chongqing,29.5637,106.5504,China,admin,12135000
Los Angeles,34.1141,-118.4068,United States,,11885717
London,51.5072,-0.1275,United Kingdom,primary,11262000
Paris,48.8567,2.3522,France,primary,11060000
Linyi,35.1038,118.3564,China,,10820000
Dongguan,23.021,113.752,China,minor,10646000
Baoding,38.874,115.464,China,minor,10546831
Hyderabad,17.3617,78.4747,India,admin,10494000
Tianjin,39.1336,117.2054,China,admin,10368000
Lima,-12.06,-77.0375,Peru,primary,10320000
Wuhan,30.5934,114.3046,China,admin,10251000
Nanyang,32.9902,112.5285,China,,9577771
Hangzhou,30.267,120.153,China,admin,9523000
Nagoya,35.1833,136.9,Japan,admin,9197000
Luanda,-8.8383,13.2344,Angola,primary,9051000
Foshan,23.0214,113.1216,China,minor,9042500
Kuala Lumpur,3.1686,101.698,Malaysia,primary,8911000
Zhoukou,33.6367,114.7014,China,minor,8677800
Tongshan,34.261,117.1859,China,minor,8669000
Hanoi,21,105.85,Vietnam,primary,8587100
Chicago,41.8375,-87.6866,United States,,8489066
Nanjing,32.0608,118.7789,China,admin,8422000
Heze,35.2343,115.4796,China,minor,8287693
Pune,18.5203,73.8567,India,,8231000
Jining,35.4151,116.5871,China,,8081905
Bogota,4.7111,-74.0722,Colombia,primary,8034649
Ahmedabad,23.0225,72.5714,India,minor,8009000
Shenyang,41.8025,123.4281,China,admin,7964000
Dar es Salaam,-6.8161,39.2803,Tanzania,admin,7962000
Khartoum,15.6031,32.5265,Sudan,primary,7869000
Johannesburg,-26.2044,28.0456,South Africa,admin,7860781
Fuyang,32.89,115.814,China,,7599913
Hong Kong,22.3,114.2,Hong Kong,primary,7450000
Ganzhou,25.831,114.933,China,minor,7396873
Shangqiu,34.415,115.656,China,,7325300
Cangzhou,38.3047,116.8387,China,minor,7300783
Riyadh,24.65,46.71,Saudi Arabia,primary,7237000
Santiago,-33.4372,-70.6506,Chile,primary,7171000
Zhumadian,33.014,114.022,China,,7008427
Zhanjiang,21.2701,110.3575,China,minor,6981236
Rangoon,16.795,96.16,Burma,primary,6874000
Yancheng,33.35,120.1569,China,minor,6709629
Bijie,27.284,105.292,China,,6686100
Xingtai,37.0717,114.5048,China,minor,6645766
Hengyang,26.894,112.572,China,,6645243
Shaoyang,27.2395,111.4679,China,,6563520
Surabaya,-7.2458,112.7378,Indonesia,admin,6556000
Surat,21.205,72.84,India,,6538000
Quanzhou,24.8744,118.6757,China,minor,6480000
Shangrao,28.4551,117.9431,China,minor,6435300
Zunyi,27.722,107.031,China,,6270700
Madrid,40.4169,-3.7033,Spain,primary,6211000
Baghdad,33.3153,44.3661,Iraq,primary,6183000
Maoming,21.6627,110.9255,China,minor,6174050
Miami,25.784,-80.2101,United States,,6113982
Xinyang,32.149,114.091,China,,6109106
Houston,29.786,-95.3885,United States,,6046392
Singapore,1.3,103.8,Singapore,primary,5983000
Prayagraj,25.4358,81.8464,India,,5954391
Huanggang,30.4537,114.8724,China,minor,5882719
Dalian,38.9,121.6,China,,5871474
Ankara,39.93,32.85,Turkey,primary,5864049
Dallas,32.7935,-96.7667,United States,,5843632
Qingdao,36.0669,120.3827,China,minor,5818255
Yulin,22.654,110.181,China,minor,5796766
Liaocheng,36.4559,115.9852,China,minor,5789863
Douala,4.05,9.7,Cameroon,admin,5768400
Qujing,25.491,103.796,China,,5765775
Nangandao,35.3036,113.9268,China,minor,5708191
Addis Ababa,9.03,38.74,Ethiopia,primary,5704000
Philadelphia,40.0077,-75.1339,United States,,5696588
Toronto,43.7417,-79.3733,Canada,admin,5647656
Zhengzhou,34.764,113.684,China,admin,5621593
Nanchong,30.8372,106.1106,China,minor,5607565
Jinan,36.6702,117.0207,China,admin,5606374
Giza,29.987,31.2118,Egypt,admin,5598402
Saint Petersburg,59.9375,30.3086,Russia,admin,5597763
Jieyang,23.551,116.3727,China,minor,5577814
Dezhou,37.436,116.359,China,minor,5568235
Nairobi,-1.2864,36.8172,Kenya,primary,5545000
Guadalajara,20.6767,-103.3475,Mexico,admin,5525000
Tai'an,36.202,117.087,China,,5472217
Dazhou,31.2093,107.4678,China,minor,5385422
Belo Horizonte,-19.9281,-43.9419,Brazil,admin,5328000
Suzhou,33.648,116.964,China,,5324476
Monterrey,25.6844,-100.3181,Mexico,admin,5324281
Yongzhou,26.42,111.613,China,,5289824
Changde,29.031,111.699,China,minor,5279102
Xiangyang,32.01,112.122,China,minor,5260951
Atlanta,33.7628,-84.422,United States,admin,5211164
Pudong,31.2347,121.5064,China,minor,5187200
Washington,38.9047,-77.0163,United States,primary,5146120
Zhaotong,27.338,103.717,China,,5092611
Zhangzhou,24.513,117.647,China,minor,5054328
Yueyang,29.3647,113.1309,China,minor,5051922
Melbourne,-37.8142,144.9631,Australia,admin,5031195
Yichun,27.816,114.417,China,minor,5007702
Abidjan,5.3364,-4.0267,Côte d’Ivoire,primary,4980000
Guilin,25.275,110.296,China,minor,4931137
Pingdingshan,33.7666,113.1926,China,,4904701
Alexandria,31.1975,29.8925,Egypt,admin,4870000
Bozhou,33.8463,115.7786,China,,4850657
Sydney,-33.8667,151.2,Australia,admin,4840600
Barcelona,41.3833,2.1833,Spain,admin,4800000
Yuncheng,35.0267,111.007,China,,4774508
Cape Town,-33.9253,18.4239,South Africa,primary,4770313
Changsha,28.228,112.939,China,admin,4766296
Suqian,33.963,118.275,China,,4719178
Jeddah,21.5428,39.1728,Saudi Arabia,,4697000
Weinan,34.5206,109.471,China,minor,4688744
Berlin,52.52,13.405,Germany,primary,4679500
Chenzhou,25.77,113.016,China,minor,4667134
Jiangmen,22.5789,113.0815,China,minor,4630300
Mianyang,31.468,104.679,China,minor,4613862
Jiujiang,29.661,115.954,China,minor,4600276
Huaihua,27.5698,110.0016,China,,4587594
Huanglongsi,34.795,114.345,China,,4564900
Taizhou,32.4567,119.9229,China,minor,4512762
Belahi,26.4,86.25,India,,4487379
Yibin,28.752,104.643,China,minor,4471896
Ji'an,27.0912,114.9668,China,minor,4469176
Yangzhou,32.3944,119.4128,China,,4459760
Kunming,25.0464,102.7094,China,admin,4422686
Changchun,43.897,125.326,China,admin,4408154
Lu'an,31.736,116.52,China,minor,4393699
Xinpu,34.5966,119.2214,China,minor,4393482
Langfang,39.5383,116.6835,China,minor,4358839
Boston,42.3188,-71.0852,United States,admin,4355184
Urumqi,43.8225,87.6125,China,admin,4335017
Suzhou,31.3,120.6194,China,minor,4330000
Guigang,23.112,109.599,China,minor,4316262
Shantou,23.354,116.682,China,minor,4312192
Jiangguanchi,34.037,113.852,China,minor,4307488
Kabul,34.5253,69.1783,Afghanistan,primary,4273156
Xiaoganzhan,30.918,113.957,China,,4270371
Bamako,12.6458,-7.9922,Mali,primary,4227569
Kano,12,8.5167,Nigeria,admin,4224966
Luzhou,28.871,105.442,China,minor,4218427
Hefei,31.8206,117.2273,China,admin,4216940
Hengshui,37.739,115.669,China,minor,4212933
Fortaleza,-3.7275,-38.5275,Brazil,admin,4167996
Anqing,30.5318,117.1153,China,minor,4165284
Zhangjiakou,40.769,114.886,China,minor,4118908
Zhaoqing,23.05,112.4667,China,minor,4113594
Shijiazhuang,38.0425,114.51,China,admin,4098243
Ningbo,29.8603,121.6245,China,minor,4087523
Qiqihar,47.3549,123.9182,China,minor,4067489
Phoenix,33.5722,-112.0892,United States,admin,4065338
Liuzhou,24.3278,109.4278,China,minor,4041700
Chifeng,42.255,118.8825,China,minor,4035967
Xiaoxita,30.692,111.287,China,minor,4017607
Amman,31.9497,35.9328,Jordan,primary,4007526
Linfen,36.088,111.519,China,,3976481
Xianyang,34.3299,108.7088,China,minor,3959842
Chuzhou,32.256,118.333,China,,3937868
Kumasi,6.7,-1.625,Ghana,admin,3903480
Zhuzhou,27.829,113.133,China,minor,3902738
Taiyuan,37.8704,112.5497,China,admin,3875053
Qingyuan,23.682,113.056,China,minor,3874000
Meizhou,24.289,116.122,China,minor,3873239
Yiyang,28.5549,112.356,China,minor,3851564
Nanning,22.8167,108.3275,China,admin,3837978
Harbin,45.7576,126.6409,China,admin,3830000
Loudi,27.6998,111.9944,China,,3826996
Abuja,9.0667,7.4833,Nigeria,primary,3770000
Yokohama,35.4442,139.6381,Japan,admin,3757630
Suihua,46.654,126.969,China,minor,3756167
Binzhou,37.383,117.971,China,,3748474
Zaozhuang,34.8109,117.3238,China,,3729140
Detroit,42.3834,-83.1024,United States,,3716929
Xiamen,24.4796,118.0889,China,minor,3707090
Mashhad,36.3264,59.5433,Iran,admin,3700000
Montreal,45.5089,-73.5617,Canada,,3675219
Fuzhou,26.0743,119.2964,China,admin,3671192
Wuhu,31.3526,118.4331,China,minor,3644420
Medan,3.5894,98.6739,Indonesia,admin,3632000
Yulinshi,38.2858,109.7341,China,,3624750
Fuzhou,27.949,116.358,China,,3614866
Wenzhou,27.9938,120.6993,China,,3604446
Changzhou,31.811,119.974,China,minor,3601079
Puyang,35.7627,115.0292,China,minor,3598740
Nanchang,28.683,115.858,China,admin,3576547
Baicheng,23.903,106.619,China,minor,3571505
Seattle,47.6211,-122.3244,United States,,3555253
Ibadan,7.3964,3.9167,Nigeria,admin,3552000
Jiaozuo,35.2157,113.2419,China,,3521078
Nadampalaiyam,11.0125,76.9714,India,,3458045
Deyang,31.127,104.398,China,minor,3456161
Busan,35.18,129.075,"Korea, South",admin,3453198
Hechi,24.693,108.085,China,minor,3417945
Tangshan,39.6294,118.1739,China,minor,3399231
Lucknow,26.85,80.95,India,admin,3382000
San Francisco,37.7558,-122.4449,United States,,3364862
Boankra,6.6919,-1.4051,Ghana,,3348000
Dubai,25.2631,55.2972,United Arab Emirates,admin,3331420
Anshan,41.108,122.994,China,,3325372
Guozhen,34.3609,107.1751,China,minor,3321853
Baojishi,34.363,107.238,China,,3321853
Qinzhou,21.981,108.654,China,minor,3302238
Guiyang,26.647,106.63,China,admin,3299724
Wuxi,31.5667,120.2833,China,minor,3245179
Kannankulam,10.52,76.21,India,,3243170
Caracas,10.4806,-66.9036,Venezuela,primary,3242000
Kotla Qasim Khan,32.5833,73.75,Pakistan,,3219375
Casablanca,33.5333,-7.5833,Morocco,admin,3215935
Hanzhong,33.0664,107.0232,China,,3211462
Shiyan,32.629,110.7987,China,minor,3209004
Guang'an,30.4564,106.6326,China,minor,3205476
Faisalabad,31.4167,73.0911,Pakistan,minor,3203846
Changzhi,36.195,113.117,China,minor,3180884
Tongren,27.7316,109.1895,China,,3168800
Bengbu,32.917,117.389,China,,3164467
Leshan,29.552,103.766,China,,3160168
Santa Cruz de la Sierra,-17.7892,-63.1975,Bolivia,,3151676
Neijiang,29.5802,105.058,China,minor,3140678
Zhenjiang,32.188,119.424,China,minor,3113384
Qinhuangdao,39.8882,119.5202,China,minor,3107400
Bursa,40.1833,29.05,Turkey,admin,3101833
Tashkent,41.3111,69.2797,Uzbekistan,primary,3095498
Guayaquil,-2.19,-79.8875,Ecuador,admin,3094420
Jaipur,26.9,75.8,India,admin,3073350
Lanzhou,36.0606,103.8268,China,admin,3067141
Ouagadougou,12.3686,-1.5275,Burkina Faso,primary,3063271
Athens,37.9842,23.7281,Greece,primary,3059764
San Diego,32.8313,-117.1222,United States,,3057778
Guatemala City,14.6417,-90.5133,Guatemala,primary,3014000
Kuwait City,29.3697,47.9783,Kuwait,primary,2989000
Qincheng,34.5815,105.7248,China,minor,2984659
Izmir,38.42,27.14,Turkey,admin,2965900
Quezon City,14.65,121.0475,Philippines,admin,2960048
Kyiv,50.45,30.5233,Ukraine,primary,2952301
Kottarassheri,10.775,76.651,India,,2952254
Meishan,30.0771,103.8484,China,,2950545
Incheon,37.4833,126.6333,"Korea, South",admin,2936117
Ningde,26.6662,119.5477,China,minor,2910000
Zhongshan,22.517,113.3925,China,minor,2909633
Minneapolis,44.9635,-93.2678,United States,,2906807
Tampa,27.9945,-82.4447,United States,,2906035
Putian,25.4526,119.0078,China,minor,2900000
Mbuji-Mayi,-6.15,23.6,Congo (Kinshasa),admin,2892000
Tongliao,43.654,122.243,China,minor,2873168
Chaoyang,41.571,120.453,China,,2872857
Hohhot,40.842,111.749,China,admin,2866615
Pyongyang,39.0167,125.7475,"Korea, North",primary,2863000
Shaoguan,24.811,113.597,China,minor,2855131
Taichung,24.1439,120.6794,Taiwan,admin,2850285
Cali,3.4206,-76.5222,Colombia,admin,2838333
Heyuan,23.7443,114.7002,China,minor,2837686
Wuzhou,23.4767,111.279,China,minor,2820977
Pretoria,-25.7461,28.1881,South Africa,primary,2818100
Suining,30.533,105.593,China,minor,2814196
Omdurman,15.6835,32.4629,Sudan,,2805396
Weihai,37.5133,122.1205,China,minor,2804771
Rizhao,35.417,119.527,China,minor,2801013
Malang,-7.98,112.62,Indonesia,,2795209
Stuttgart,48.7775,9.18,Germany,admin,2787724
Daqing,46.589,125.104,China,minor,2781562
Rome,41.8931,12.4828,Italy,primary,2748109
Kaohsiung,22.615,120.2975,Taiwan,admin,2737660
Brooklyn,40.6501,-73.9496,United States,,2736074
Xiangtan,27.8313,112.9454,China,,2726181
Bazhou,31.868,106.748,China,minor,2712894
Handan,36.601,114.487,China,minor,2708015
Brisbane,-27.4678,153.0281,Australia,admin,2706966
Jinzhou,41.129,121.148,China,,2703853
Denver,39.762,-104.8758,United States,admin,2691349
Xinzhou,38.416,112.734,China,minor,2689668
Nanping,26.6418,118.1774,China,minor,2680645
Gazipura,23.9234,90.3959,Bangladesh,,2674697
Shanwei,22.7872,115.3756,China,minor,2672819
Maracaibo,10.6333,-71.6333,Venezuela,admin,2658355
Chaozhou,23.658,116.622,China,minor,2656600
Baotou,40.6213,109.9532,China,,2650364
Longyan,25.076,117.017,China,minor,2640000
Weifang,36.708,119.162,China,,2636154
Huai'an,33.551,119.113,China,,2632788
Zibo,36.8138,118.055,China,,2631647
Attadappa,11.8689,75.3555,India,,2615266
Munich,48.1375,11.575,Germany,admin,2606021
Gulou,26.0865,119.298,China,minor,2606000
Birmingham,52.48,-1.9025,United Kingdom,,2590363
Valencia,10.1833,-68,Venezuela,admin,2585202
Damascus,33.502,36.2981,Syria,primary,2584771
Chattogram,22.335,91.8325,Bangladesh,admin,2581643
Brazzaville,-4.2667,15.2667,Congo (Brazzaville),primary,2557100
Yangjiang,21.857,111.983,China,minor,2555600
Sanaa,15.3483,44.2064,Yemen,primary,2545000
Barmhan Kalan,19.1972,72.9722,India,,2537000
Medellin,6.2308,-75.5906,Colombia,admin,2529403
Dingxi,35.608,104.592,China,minor,2524097
Shaoxing,30.0511,120.5833,China,minor,2521964
Yantai,37.4646,121.4478,China,,2511053
Huizhou,23.112,114.416,China,minor,2509243
Xuanzhou,30.939,118.759,China,,2500063
Mirzapur,25.146,82.569,India,,2496970
Hamburg,53.55,10,Germany,admin,2496600
Taipei,25.0375,121.5625,Taiwan,primary,2494813
Ankang,32.6854,109.029,China,,2493436
Zigong,29.339,104.779,China,,2489256
Sanming,26.2634,117.6389,China,minor,2486450
Toluca,19.2925,-99.6569,Mexico,admin,2476689
Huangshi,30.2011,115.039,China,minor,2469079
Yaounde,3.8667,11.5167,Cameroon,primary,2440462
Zhuhai,22.2742,113.5719,China,minor,2439585
Huludao,40.711,120.837,China,minor,2434194
Baoshan,25.112,99.161,China,,2431211
Mecca,21.4225,39.8261,Saudi Arabia,admin,2427924
Vancouver,49.25,-123.1,Canada,,2426160
Lianshan,40.7523,120.828,China,minor,2426000
Beirut,33.8981,35.5058,Lebanon,primary,2421354
Salvador,-12.9831,-38.4928,Brazil,admin,2417678
Bucharest,44.4325,26.1039,Romania,primary,2412530
Longba,33.3702,104.9603,China,,2407272
Nagpur,21.1497,79.0806,India,,2405665
Queens,40.7498,-73.7976,United States,,2405464
Tieling,42.2237,123.726,China,,2388294
Yunfu,22.9152,112.0445,China,minor,2383350
Bekasi,-6.2333,107,Indonesia,,2381053
Daegu,35.8717,128.6017,"Korea, South",admin,2376044
Ghaziabad,28.67,77.42,India,,2375820
Luoyang,34.6197,112.4539,China,minor,2372571
Luohe,33.5804,114.0166,China,minor,2367490
Algiers,36.7325,3.0872,Algeria,primary,2364230
Anshun,26.2531,105.9476,China,,2353100
Huainan,32.6314,117.0194,China,,2333896
Depok,-6.394,106.8225,Indonesia,,2330333
Konya,37.8667,32.4833,Turkey,admin,2320241
Haiphong,20.8651,106.6838,Vietnam,admin,2310280
Yanjiang,30.129,104.627,China,minor,2308631
Guangyuan,32.436,105.844,China,,2305657
Baku,40.3667,49.8352,Azerbaijan,primary,2300500
Yingkou,40.625,122.219,China,minor,2296540
Mudanjiang,44.5514,129.6329,China,minor,2290208
Riverside,33.9381,-117.3949,United States,,2288508
Fukuoka,33.59,130.4017,Japan,admin,2286000
Nantong,31.981,120.894,China,minor,2261382
Lincang,23.884,100.089,China,,2257991
Las Vegas,36.2333,-115.2654,United States,,2256509
Haikou,20.0186,110.3488,China,admin,2250000
Yuxi,24.347,102.527,China,minor,2249502
Tangerang,-6.1703,106.6403,Indonesia,,2237006
Supaul,26.126,86.605,India,,2229076
Almaty,43.24,76.915,Kazakhstan,admin,2228675
Vienna,48.2083,16.3725,Austria,primary,2223236
Esfahan,32.6653,51.6703,Iran,admin,2219343
Xining,36.6224,101.7804,China,admin,2208708
Jincheng,35.491,112.852,China,minor,2194545
Baltimore,39.3051,-76.6144,United States,,2189589
Dandong,40.1167,124.3833,China,,2188436
Yan'an,36.65,109.494,China,,2187009
Qinbaling,35.7091,107.6436,China,,2179716
Gaoping,30.7824,106.1281,China,minor,2174000
Awka,6.2069,7.0678,Nigeria,admin,2171900
Taizhou,28.6557,121.4208,China,minor,2162461
Ma'anshan,31.669,118.507,China,minor,2159930
Jiamusi,46.8,130.319,China,minor,2156505
Perth,-31.9558,115.8597,Australia,admin,2141834
Gaziantep,37.0628,37.3792,Turkey,admin,2130432
Phnom Penh,11.5696,104.921,Cambodia,primary,2129371
St. Louis,38.6359,-90.2451,United States,,2127843
Mogadishu,2.0392,45.3419,Somalia,primary,2120000
Lishui,28.468,119.923,China,minor,2116957
Kowloon,22.3167,114.1833,Hong Kong,,2108419
Cordoba,-31.4167,-64.1833,Argentina,admin,2106734
Zamboanga City,6.9042,122.0761,Philippines,admin,2100000
Rawalpindi,33.6,73.0333,Pakistan,minor,2098231
Havana,23.1367,-82.3589,Cuba,primary,2089532
Chongzuo,22.377,107.365,China,minor,2088692
Portland,45.5371,-122.65,United States,,2084045
Laibin,23.7501,109.2212,China,minor,2074611
San Antonio,29.4632,-98.5238,United States,,2069843
Vadodara,22.3,73.2,India,,2065771
Qingyang,24.7816,118.5517,China,minor,2061600
Rajkot,22.3,70.7833,India,,2043000
Shangzhou,33.8734,109.9186,China,,2041231
Vishakhapatnam,17.7042,83.2978,India,,2035922
Shengli,37.434,118.6746,China,minor,2035338
Sanmenxia,34.7732,111.2004,China,minor,2034872
Warsaw,52.23,21.0111,Poland,primary,2028000
Gujranwala,32.1567,74.19,Pakistan,minor,2027001
Hezhou,24.4042,111.5672,China,minor,2007858
Aleppo,36.2319,37.1681,Syria,admin,2003671
Tijuana,32.525,-117.0333,Mexico,minor,2002000
Puning,23.298,116.166,China,,1998619
Indore,22.7167,75.8472,India,,1994397
Minsk,53.9006,27.5586,Belarus,primary,1992862
Karaj,35.8292,50.9675,Iran,admin,1973470
Kananga,-5.897,22.4488,Congo (Kinshasa),admin,1971704
Huaibei,33.956,116.798,China,,1970265
Peshawar,34.0144,71.5675,Pakistan,admin,1970042
Sacramento,38.5677,-121.4685,United States,admin,1962998
Sapporo,43.0619,141.3544,Japan,admin,1959313
Tilburg,51.5572,5.0911,Netherlands,minor,1944588
Austin,30.3005,-97.7522,United States,admin,1915031
Orlando,28.4773,-81.337,United States,,1913597
Davao,7.07,125.6,Philippines,admin,1910167
Songjiang,31.0058,121.2333,China,minor,1909713
Yinchuan,38.485,106.225,China,admin,1901793
Abhepur,39.41,116.38,India,,1895686
Thane,19.1972,72.9722,India,,1886941
Multan,30.1978,71.4697,Pakistan,minor,1871843
Port Harcourt,4.8242,7.0336,Nigeria,admin,1865000
Fushun,41.881,123.957,China,,1861372
Tainan,22.9833,120.1833,Taiwan,admin,1856642
Pingliang,35.5424,106.6649,China,minor,1848607
Siping,43.1668,124.3506,China,minor,1814733
San Juan,18.3985,-66.061,Puerto Rico,primary,1809800
Pingxiang,27.659,113.887,China,minor,1804805
Bhopal,23.2599,77.4126,India,admin,1798218
Mosul,36.3667,43.1167,Iraq,admin,1792000
Diyarbakir,37.91,40.24,Turkey,admin,1791373
Lubumbashi,-11.6647,27.4794,Congo (Kinshasa),admin,1786397
Benin City,6.3333,5.6222,Nigeria,admin,1780000
Curitiba,-25.4297,-49.2719,Brazil,admin,1773718
San Jose,37.3012,-121.848,United States,,1771563
Shuyangzha,34.1299,118.7734,China,,1770000
Adana,37,35.3213,Turkey,admin,1765981
Quito,-0.22,-78.5125,Ecuador,primary,1763275
Agra,27.18,78.02,India,,1760285
Peyanvilai,8.9,77.9833,India,,1750176
Lusaka,-15.4167,28.2833,Zambia,primary,1747152
Indianapolis,39.7771,-86.1458,United States,admin,1740984
Hyderabad City,25.3792,68.3683,Pakistan,minor,1732693
Pimpri-Chinchwad,18.6186,73.8037,India,,1729320
Maracay,10.2469,-67.5961,Venezuela,admin,1723236
Masqat,23.614,58.5911,Oman,,1720000
Montevideo,-34.9056,-56.1842,Uruguay,primary,1719453
Pittsburgh,40.4397,-79.9763,United States,,1712828
Cincinnati,39.1413,-84.506,United States,,1704916
Manhattan,40.7834,-73.9662,United States,,1694263
Kansas City,39.1238,-94.5541,United States,,1686807
Budapest,47.4983,19.0408,Hungary,primary,1686222
Patna,25.594,85.1376,India,admin,1684222
Kampala,0.3136,32.5811,Uganda,primary,1680600
Beihai,21.481,109.12,China,minor,1680000
Sanzhou,30.82,108.4,China,,1680000
Cleveland,41.4764,-81.6805,United States,,1679247
Conakry,9.5092,-13.7122,Guinea,primary,1667864
Ximeicun,24.9612,118.3849,China,,1663542
Caloocan City,14.65,120.97,Philippines,admin,1661584
Ecatepec,19.6097,-99.06,Mexico,minor,1655015
Yushan,31.322,120.985,China,minor,1652159
Fuxin,42.022,121.67,China,,1647280
Novosibirsk,55.05,82.95,Russia,admin,1633851
Bilaspur,22.09,82.15,India,,1625502
Semarang,-6.99,110.4225,Indonesia,admin,1621384
Jingdezhen,29.2917,117.1986,China,minor,1618979
Ludhiana,30.91,75.85,India,,1618879
Liaoyang,41.279,123.176,China,,1604580
Jiangyin,31.839,120.295,China,,1595138
Valencia,39.47,-0.3764,Spain,admin,1595000
Shuozhou,39.3317,112.4329,China,minor,1593444
Leon de los Aldama,21.1167,-101.6833,Mexico,minor,1579803
Columbus,39.9862,-82.9855,United States,admin,1578153
Puebla,19.0333,-98.1833,Mexico,admin,1576259
Bien Hoa,10.95,106.8167,Vietnam,admin,1575000
Chengtangcun,35.0833,117.15,China,,1574648
Yopougon,5.3748,-4.0867,Côte d’Ivoire,,1571065
Hebi,35.748,114.297,China,,1565973
Shiraz,29.61,52.5425,Iran,admin,1565572
Dushanbe,38.5367,68.78,Tajikistan,primary,1564700
Madurai,9.9252,78.1198,India,minor,1561129
Huzhou,30.8925,120.0875,China,minor,1558826
Harare,-17.8292,31.0522,Zimbabwe,primary,1558823
Tabriz,38.0817,46.2992,Iran,admin,1558693
Jamshedpur,22.7925,86.1842,India,,1558000
Baicheng,45.62,122.838,China,minor,1551378
San Jose,9.9325,-84.08,Costa Rica,primary,1543000
Shaoyang,32.912,119.8526,China,minor,1542600
San Salvador,13.6989,-89.1914,El Salvador,primary,1538525
Palembang,-2.9861,104.7556,Indonesia,admin,1535952
Kawasaki,35.5167,139.7,Japan,,1531646
Kobe,34.69,135.1956,Japan,admin,1521707
Jiaxing,30.747,120.756,China,minor,1518654
Zhangjiajie,29.117,110.479,China,minor,1517027
Baiyin,36.5451,104.1389,China,minor,1512110
Guiping,23.4,110.0833,China,minor,1511011
Changshu,31.656,120.753,China,,1510100
Jixi,45.295,130.969,China,minor,1502060
Xushan,30.1667,121.2333,China,minor,1502000
Lome,6.1308,1.2153,Togo,primary,1500000
Niamey,13.515,2.1175,Niger,primary,1496260
Gwangju,35.1653,126.8486,"Korea, South",admin,1490092
Recife,-8.0539,-34.8808,Brazil,admin,1488920
Nasik,19.9975,73.7898,India,,1486053
Abu Dhabi,24.4667,54.3667,United Arab Emirates,primary,1483000
Onitsha,6.1667,6.7833,Nigeria,minor,1483000
Amsterdam,52.3728,4.8936,Netherlands,primary,1477213
Vijayawada,16.5193,80.6305,India,,1476931
Zapopan,20.7167,-103.4,Mexico,minor,1476491
Daejeon,36.35,127.385,"Korea, South",admin,1475221
Bronx,40.8501,-73.8662,United States,,1472654
Auckland,-36.8492,174.7653,New Zealand,admin,1470100
Yekaterinburg,56.8356,60.6128,Russia,admin,1468833
Wuwei,37.929,102.638,China,minor,1464955
Jinhua,29.079,119.647,China,minor,1463990
Kyoto,35.0117,135.7683,Japan,admin,1463723
Pizhou,34.398,117.89,China,,1458038
Yangshe,31.8767,120.556,China,minor,1447600
Dakar,14.6726,-17.432,Senegal,primary,1438725
Charlotte,35.2083,-80.8303,United States,,1436613
Yucheng,30.01,103.0415,China,minor,1434603
Kayseri,38.7225,35.4875,Turkey,admin,1434357
Virginia Beach,36.7335,-76.0435,United States,,1431821
Rui'an,27.7833,120.625,China,,1424667
Muscat,23.6139,58.5922,Oman,primary,1421409
Kharkiv,49.9925,36.2311,Ukraine,admin,1421125
Pointe-Noire,-4.7975,11.8503,Congo (Brazzaville),admin,1420612
Medina,24.47,39.61,Saudi Arabia,admin,1411599
Sangereng,-6.2889,106.7181,Indonesia,,1404785
Faridabad,28.4211,77.3078,India,,1404653
Sofia,42.6979,23.3217,Bulgaria,primary,1404116
Ulaanbaatar,47.9214,106.9055,Mongolia,primary,1396288
Adelaide,-34.9275,138.6,Australia,admin,1387290
Prague,50.0875,14.4214,Czechia,primary,1384732
Wenling,28.3667,121.3667,China,,1366794
Copenhagen,55.6805,12.5615,Denmark,primary,1366301
Najafgarh,28.6125,76.9847,India,,1365152
Lianjiang,21.7333,110.2833,China,,1363470
Helsinki,60.1708,24.9375,Finland,primary,1360075
Samsun,41.2903,36.3336,Turkey,admin,1356079
Milan,45.4669,9.19,Italy,admin,1354196
Antalya,36.8874,30.7075,Turkey,admin,1344000
Santiago,19.4572,-70.6889,Dominican Republic,admin,1343423
Chizhou,30.6654,117.4916,China,minor,1342764
Makassar,-5.1331,119.4136,Indonesia,admin,1338663
Porto Alegre,-30.0328,-51.23,Brazil,admin,1332845
Huangshan,29.7149,118.3376,China,minor,1330565
Gaozhou,21.9244,110.8422,China,minor,1328657
Barranquilla,10.9833,-74.8019,Colombia,admin,1326588
Al Basrah,30.515,47.81,Iraq,admin,1326564
Benxi,41.3039,123.7649,China,,1326018
Saitama,35.8614,139.6456,Japan,admin,1325843
Ahvaz,31.3047,48.6783,Iran,admin,1325000
Guarulhos,-23.4667,-46.5333,Brazil,minor,1324781
Leizhou,20.9143,110.0967,China,minor,1321091
Juarez,31.745,-106.485,Mexico,minor,1321004
Mandalay,21.9831,96.0844,Burma,admin,1319452
Yangquan,37.8571,113.5804,China,minor,1318505
Fuqing,25.7167,119.3833,China,minor,1316000
Xintai,35.909,117.768,China,,1315942
Wusong,30.945,117.811,China,minor,1311726
Tongling,30.9456,117.8114,China,,1311726
Calgary,51.05,-114.0667,Canada,,1306784
Meerut,28.98,77.71,India,,1305429
Jacksonville,30.3322,-81.6749,United States,,1303156
Kuaidamao,41.7283,125.9397,China,minor,1302778
Huazhou,21.664,110.6396,China,,1291668
Milwaukee,43.0642,-87.9675,United States,,1290221
Wuzhong,37.9978,106.1986,China,minor,1284000
Belem,-1.4558,-48.5039,Brazil,admin,1280614
Cacuaco,-8.8053,13.2444,Angola,,1279488
Rosario,-32.9575,-60.6394,Argentina,minor,1276000
Tangier,35.7767,-5.8039,Morocco,admin,1275428
Antananarivo,-18.91,47.525,Madagascar,primary,1275207
Canagatan,18,121.8,Philippines,,1273219
Soweto,-26.2678,27.8585,South Africa,,1271628
Providence,41.823,-71.4187,United States,admin,1270529
Xiantao,30.328,113.443,China,,1268715
Jabalpur,23.1667,79.9333,India,,1267564
Huaiyin,33.5819,119.028,China,,1264000
Yutan,28.278,112.552,China,minor,1263332
Kazan,55.7964,49.1089,Russia,admin,1259173
Bagam,1.13,104.0531,Indonesia,,1256610
Dayan,26.8552,100.2259,China,,1253878
Comayaguela,14.098,-87.21,Honduras,,1250000
Brussels,50.8467,4.3525,Belgium,primary,1249597
Laiwu,36.1833,117.6667,China,,1248636
Huazhou,32.688,112.087,China,minor,1247807
Sharjah,25.3575,55.3908,United Arab Emirates,admin,1247749
Kalyan,19.24,73.13,India,,1246381
Rucheng,32.246,120.591,China,minor,1241700
Barquisimeto,10.0636,-69.3347,Venezuela,admin,1240714
Yongcheng,33.9299,116.45,China,,1240382
Sumedang,-6.84,107.9208,Indonesia,,1240000
Can Tho,10.0333,105.7833,Vietnam,admin,1237300
Suwon,37.2667,127.0167,"Korea, South",admin,1234300
Yiwu,29.3069,120.0753,China,minor,1234015
Vasai-Virar,19.47,72.8,India,,1221233
Campinas,-22.9009,-47.0573,Brazil,minor,1213792
Dadukou,26.5824,101.7184,China,minor,1212203
Lingcheng,22.708,110.354,China,,1211637
Shuangyashan,46.6762,131.1416,China,minor,1208803
Nizhniy Novgorod,56.3269,44.0075,Russia,admin,1204985
Panipat,29.3875,76.97,India,,1202811
Qom,34.64,50.8764,Iran,admin,1201158
Mombasa,-4.05,39.6667,Kenya,admin,1200000
Hargeysa,9.56,44.065,Somalia,admin,1200000
Baidoa,3.1167,43.65,Somalia,admin,1200000
Varanasi,25.3189,83.0128,India,,1198491
Hiroshima,34.3914,132.4519,Japan,admin,1198021
Chiang Mai,18.7953,98.9986,Thailand,admin,1198000
Belgrade,44.8178,20.4569,Serbia,primary,1197714
Maiduguri,11.8372,13.1542,Nigeria,admin,1197497
Kalleli,9.2807,76.8697,India,,1197412
Batam Centre,1.1272,104.0556,Indonesia,,1196396
Pingdu,36.7769,119.9884,China,,1191348
Rongcheng,26.218,104.103,China,,1189813
Mbandaka,0.0478,18.2558,Congo (Kinshasa),admin,1187837
Xinyu,27.8186,114.9167,China,minor,1186700
Doha,25.2867,51.5333,Qatar,primary,1186023
Shymkent,42.3167,69.5958,Kazakhstan,admin,1184113
Tripoli,32.8872,13.1914,Libya,primary,1183000
Srinagar,34.09,74.79,India,admin,1180570
Nashville,36.1715,-86.7842,United States,admin,1178679
Chelyabinsk,55.1547,61.3758,Russia,admin,1177058
Aurangabad,19.88,75.32,India,,1175116
Cilacap,-7.7167,109.017,Indonesia,minor,1174964
Xinhualu,34.3964,113.7402,China,minor,1172237
Salt Lake City,40.7776,-111.9311,United States,admin,1169033
Guankou,28.1637,113.6433,China,minor,1168056
Bandar Lampung,-5.45,105.2667,Indonesia,admin,1166761
Dhanbad,23.7998,86.4305,India,,1162472
Nay Pyi Taw,19.7475,96.115,Burma,primary,1160242
Aba,5.1167,7.3667,Nigeria,minor,1160000
Jingling,30.664,113.167,China,,1158640
Zhuji,29.7167,120.2333,China,minor,1157938
Tegucigalpa,14.1057,-87.204,Honduras,primary,1157509
Kigali,-1.9536,30.0606,Rwanda,primary,1156663
Samara,53.2028,50.1408,Russia,admin,1156659
Yingtan,28.2721,117.0395,China,,1154223
Edmonton,53.5344,-113.4903,Canada,admin,1151635
Raleigh,35.8324,-78.6429,United States,admin,1150010
Bishkek,42.8667,74.5667,Kyrgyzstan,primary,1145044
Bujumbura,-3.3833,29.3667,Burundi,primary,1143202
Guyuan,36.01,106.257,China,,1142142
Leiyang,26.4223,112.8598,China,minor,1140675
Krasnodar,45.0333,38.9667,Russia,admin,1138654
Rostov,47.2225,39.71,Russia,admin,1135968
Maputo,-25.9153,32.5764,Mozambique,primary,1133200
Bukavu,-2.5061,28.8608,Congo (Kinshasa),admin,1133000
Amritsar,31.64,74.86,India,,1132383
Shagamu,6.8333,3.65,Nigeria,minor,1132270
Aligarh,27.88,78.08,India,,1131160
Zhangye,38.9248,100.4499,China,minor,1131016
Ufa,54.7261,55.9475,Russia,admin,1128787
Santo Domingo,18.4764,-69.8933,Dominican Republic,primary,1128678
Ulsan,35.55,129.3167,"Korea, South",admin,1127553
Rongcheng,29.8402,112.9048,China,minor,1120822
Tbilisi,41.7225,44.7925,Georgia,primary,1118035
Guwahati,26.1722,91.7458,India,,1116267
Fes,34.0433,-5.0033,Morocco,admin,1112072
Yingchuan,34.142,113.489,China,minor,1109782
Ninh Binh,20.25,105.8333,Vietnam,admin,1106913
Yerevan,40.1814,44.5144,Armenia,primary,1106300
Mwanza,-2.5167,32.9,Tanzania,admin,1104521
Omsk,54.9833,73.3667,Russia,admin,1104485
Mexicali,32.6633,-115.4678,Mexico,admin,1102342
Sevilla,37.39,-5.99,Spain,admin,1100000
Ikare,7.5167,5.75,Nigeria,minor,1099931
Dingzhou,38.516,114.99,China,minor,1095986
Tamale,9.4075,-0.8533,Ghana,admin,1095808
Yuyao,30.05,121.15,China,,1095000
Goiania,-16.6806,-49.2564,Brazil,admin,1093007
Krasnoyarsk,56.0089,92.8719,Russia,admin,1092851
Cologne,50.9364,6.9528,Germany,,1087353
Ubungo,-6.7889,39.2056,Tanzania,,1086912
Yicheng,31.36,119.815,China,minor,1082929
Richmond,37.5295,-77.4756,United States,admin,1081248
Kisangani,0.5167,25.2,Congo (Kinshasa),admin,1081000
Ezhou,30.3914,114.8949,China,minor,1079353
Astana,51.1472,71.4222,Kazakhstan,primary,1078362
Zhufeng,36,119.4167,China,,1078178
Nezahualcoyotl,19.4081,-99.0186,Mexico,minor,1077208
Nouakchott,18.0858,-15.9785,Mauritania,primary,1077169
Haora,22.58,88.3294,India,,1077075
Tongjin,37.2333,127.2,"Korea, South",,1076369
Ranchi,23.36,85.33,India,admin,1073440
Ciudad Nezahualcoyotl,19.4006,-99.0148,Mexico,,1072676
Gwalior,26.2125,78.1775,India,,1069276
Ottawa,45.4247,-75.695,Canada,primary,1068821
Haicheng,40.8824,122.6852,China,minor,1067905
Jianguang,28.1958,115.7833,China,,1065641
Goyang,37.65,126.8,"Korea, South",minor,1061929
Sendai,38.2682,140.8694,Japan,admin,1061177
Xibeijie,39.7334,98.4943,China,minor,1055706
Chandigarh,30.75,76.78,India,admin,1055450
Voronezh,51.6717,39.2106,Russia,admin,1051995
Managua,12.1364,-86.2514,Nicaragua,primary,1051236
Zhongwei,37.5002,105.1968,China,minor,1046000
Jiancheng,30.38,104.53,China,minor,1045900
Mersin,36.8,34.6333,Turkey,admin,1040507
Shouguang,36.857,118.791,China,,1039205
Liangshi,27.26,111.7442,China,,1038416
Sao Luis,-2.53,-44.3028,Brazil,admin,1037775
Jodhpur,26.28,73.02,India,,1033918
Memphis,35.1087,-89.9663,United States,,1033394
Matola,-25.9667,32.4667,Mozambique,,1032197
Ogbomoso,8.1333,4.25,Nigeria,minor,1032000
Sanya,18.2533,109.5036,China,minor,1031396
Rangapukur,25.5206,89.2147,Bangladesh,,1031388
Ashgabat,37.9375,58.38,Turkmenistan,primary,1030063
Enugu,6.5,7.5,Nigeria,admin,1029400
Linhai,28.85,121.1167,China,,1028813
Perm,58,56.3167,Russia,admin,1026908
Shubra al Khaymah,30.1286,31.2422,Egypt,,1025569
Monrovia,6.3133,-10.8014,Liberia,primary,1021762
Islamabad,33.6931,73.0639,Pakistan,primary,1014825
Xinyi,22.3549,110.9468,China,,1013900
Thu Duc,10.8266,106.7609,Vietnam,minor,1013795
Aqchah,36.9114,66.1858,Afghanistan,minor,1012000
Odesa,46.492,30.7081,Ukraine,admin,1010537
Raipur,21.2444,81.6306,India,admin,1010087
Namangan,41.0011,71.6683,Uzbekistan,admin,1010000
Changwon,35.2708,128.6631,"Korea, South",admin,1009998
Arequipa,-16.3989,-71.5369,Peru,admin,1008290
Tshikapa,-6.4167,20.8,Congo (Kinshasa),admin,1006387
Volgograd,48.7086,44.5147,Russia,admin,1004763
Morelia,19.7683,-101.1894,Mexico,admin,1002461
Kota,25.18,75.83,India,,1001694
Quetta,30.1833,67,Pakistan,admin,1001205
Oklahoma City,35.4676,-97.5136,United States,admin,1000207
Domaa-Ahenkro,7.2739,-2.8735,Ghana,,1000000
Bareilly,28.3667,79.4306,India,,1000000
Liaoyuan,42.888,125.1447,China,minor,996903
Stockholm,59.3275,18.0547,Sweden,primary,995574
Bordeaux,44.84,-0.58,France,admin,994920
Taixing,32.159,120.029,China,minor,990200
Lilongwe,-13.9669,33.7873,Malawi,primary,989318
Port-au-Prince,18.5425,-72.3386,Haiti,primary,987310
Esenyurt,41.0342,28.68,Turkey,,983571
Pekanbaru,0.5092,101.4453,Indonesia,admin,983356
Bogor,-6.5966,106.7972,Indonesia,,982469
Ciudad Guayana,8.3667,-62.65,Venezuela,minor,978202
Chiba,35.6073,140.1064,Japan,admin,975014
Kirkuk,35.4667,44.4,Iraq,admin,975000
Shuizhai,33.4658,114.8753,China,,973197
Qianxi,27.0087,106.0323,China,,970700
Hartford,41.7661,-72.6834,United States,admin,969171
Dnipro,48.4675,35.04,Ukraine,admin,968502
Baishan,41.944,126.4147,China,minor,968373
Narayanganj,23.6167,90.5,Bangladesh,,967951
Gqeberha,-33.9581,25.6,South Africa,,967677
Huilong,31.87,121.703,China,minor,967313
Malaga,36.7194,-4.42,Spain,minor,967250
Marrakech,31.63,-8.0089,Morocco,admin,966987
Louisville,38.1663,-85.6485,United States,,965005
Cebu City,10.32,123.75,Philippines,admin,964169
Asmara,15.3358,38.9411,Eritrea,primary,963000
Coimbatore,11.0008,76.9633,India,,959823
Maceio,-9.6658,-35.735,Brazil,admin,957916
Nada,19.5209,109.5808,China,minor,954259
Fangchenggang,21.6867,108.3547,China,minor,953300
Solapur,17.68,75.92,India,,951558
Freetown,8.4833,-13.2331,Sierra Leone,primary,951000
Kaiyuan,36.0193,113.86,China,minor,950939
Buffalo,42.9018,-78.8487,United States,,949547
Santo Domingo Este,18.4855,-69.8734,Dominican Republic,admin,948855
Vientiane,17.98,102.63,Laos,primary,948487
Kermanshah,34.3369,47.0911,Iran,admin,946651
Kibanseke Premiere,-4.4419,15.395,Congo (Kinshasa),,946372
Seberang Jaya,5.3909,100.4104,Malaysia,,946092
Sale,34.0333,-6.8,Morocco,,945101
Hubli,15.3502,75.1376,India,,943788
El Alto,-16.5047,-68.1633,Bolivia,,943000
Cankaya,39.9244,32.8856,Turkey,minor,942553
Hwasu-dong,37.1997,126.8314,"Korea, South",,941489
Yingcheng,24.21,113.401,China,minor,941325
Fort Worth,32.7817,-97.3474,United States,,941311
Setagaya,35.6466,139.6532,Japan,,940071
Kecioren,40,32.8667,Turkey,minor,939279
Luocheng,22.7689,111.5697,China,minor,936931
Jerusalem,31.7789,35.2256,Israel,primary,936425
Khartoum North,15.6333,32.6333,Sudan,,936349
Meishan,34.167,112.844,China,minor,936000
Mushin,6.5333,3.35,Nigeria,minor,935400
Trujillo,-8.112,-79.0288,Peru,admin,935147
Kitakyushu,33.8833,130.8833,Japan,,935084
Aguascalientes,21.876,-102.296,Mexico,admin,934424
Khulna,22.8167,89.55,Bangladesh,admin,928891
Chihuahua,28.6369,-106.0769,Mexico,admin,925762
Bridgeport,41.1918,-73.1954,United States,,921660
Xin'an,34.286,118.355,China,,920628
Mysore,12.3086,76.6531,India,,920550
Kashgar,39.4681,75.9938,China,minor,920000
Songnam,37.4333,127.15,"Korea, South",,918771
New Orleans,30.0687,-89.9288,United States,,918752
Trichinopoly,10.7903,78.7047,India,,916857
Cartagena,10.4,-75.5,Colombia,admin,914552
Qingzhou,36.6853,118.4796,China,,914047
Naples,40.8358,14.2486,Italy,admin,913462
Santiago del Estero,-27.7833,-64.2667,Argentina,admin,911506
Naucalpan de Juarez,19.4753,-99.2378,Mexico,minor,910407
Masbate,12.27,123.58,Philippines,admin,908920
Owerri,5.485,7.035,Nigeria,admin,908109
Taishan,22.252,112.794,China,,907744
Jiaozhou,36.2647,120.0334,China,,907500
Wuchuan,21.441,110.779,China,,907354
Wafangdian,39.6271,121.9796,China,,905082
La Plata,-34.9211,-57.9544,Argentina,admin,904789
Bobo-Dioulasso,11.1833,-4.2833,Burkina Faso,admin,903887
Ad Dammam,26.4333,50.1,Saudi Arabia,admin,903312
Hanchuan,30.6667,113.8333,China,,903296
Quzhou,28.9702,118.8593,China,,902767
Donetsk,48.0028,37.8053,Ukraine,admin,901645
Ashmun,30.2974,30.9764,Egypt,,901191
Bunia,1.5667,30.25,Congo (Kinshasa),admin,900666
Wuchang,44.924,127.158,China,minor,897705
Sao Goncalo,-22.8269,-43.0539,Brazil,minor,896744
Hengzhou,22.6799,109.2614,China,minor,896099
Feicheng,36.1861,116.7719,China,,894115
Bucaramanga,7.1333,-73,Colombia,admin,893040
Cazenga,-8.8214,13.2911,Angola,,892401
Merida,20.9667,-89.6167,Mexico,admin,892363
Hegang,47.3501,130.298,China,minor,891271
Osmangazi,40.1983,29.06,Turkey,minor,891250
Moradabad,28.8319,78.7764,India,,889810
Bangui,4.3733,18.5628,Central African Republic,primary,889231
Abeokuta,7.1608,3.3483,Nigeria,admin,888924
Cancun,21.1606,-86.8475,Mexico,minor,888797
Zaoyang,32.129,112.772,China,,888794
Dongtai,32.795,120.519,China,minor,888410
Antipolo,14.5842,121.1763,Philippines,admin,887399
Taguig City,14.52,121.05,Philippines,admin,886722
Tabuk,28.3972,36.5789,Saudi Arabia,admin,886036
Xishan,27.6461,113.497,China,minor,885987
Zhoushan,29.9856,122.2074,China,minor,882932
Panama City,8.9711,-79.5347,Panama,primary,880691
Tucson,32.1541,-110.8787,United States,,879871
Yichun,47.728,128.841,China,minor,878881
As Sulaymaniyah,35.55,45.4333,Iraq,admin,878146
Klang,3.0223,101.5481,Malaysia,,878000
Tiruppur,11.1085,77.3411,India,,877778
Marseille,43.2964,5.37,France,admin,877215
Gurgaon,28.456,77.029,India,,876824
Yangchun,22.1704,111.7916,China,,875896
Ar Ramadi,33.4258,43.2992,Iraq,admin,874543
Hai'an,32.535,120.563,China,minor,874334
Jalandhar,31.326,75.5762,India,,873725
Daye,30.0961,114.9804,China,,871214
Zhongxiang,31.168,112.588,China,,868897
Gaomi,36.3833,119.75,China,,868715
Teresina,-5.0903,-42.8167,Brazil,admin,868075
Lhasa,29.6534,91.1719,China,admin,867891
Ipoh,4.6,101.065,Malaysia,admin,866772
Saltillo,25.4231,-100.9919,Mexico,admin,864431
Aden,12.8,45.0333,Yemen,admin,863000
El Paso,31.8476,-106.43,United States,,862494
Gongzhuling,43.5053,124.8224,China,minor,862313
Lianyuan,27.692,111.664,China,minor,862099
Ikeja,6.6,3.35,Nigeria,admin,861300
Tyumen,57.15,65.5333,Russia,admin,861100
Cochabamba,-17.3883,-66.1597,Bolivia,admin,856198
Portsmouth,50.8058,-1.0872,United Kingdom,,855679
Southampton,50.9025,-1.4042,United Kingdom,,855569
Hermosillo,29.0989,-110.9542,Mexico,admin,855563
Cheongju,36.6333,127.4833,"Korea, South",admin,852018
Shache,38.4261,77.25,China,,851374
Thanh Hoa,19.8075,105.7764,Vietnam,admin,850000
Macheng,31.173,115.008,China,,849090
Akure,7.25,5.195,Nigeria,admin,847903
Ilorin,8.5,4.55,Nigeria,admin,847582
Erbil,36.1911,44.0094,Iraq,admin,846000
Kathmandu,27.71,85.32,Nepal,primary,845767
Turin,45.0792,7.6761,Italy,admin,841600
Anqiu,36.478,119.219,China,,840553
Yuci,37.6823,112.7281,China,,840000
Dehui,44.535,125.703,China,,839786
Pietermaritzburg,-29.6167,30.3833,South Africa,admin,839327
Durban,-29.8833,31.05,South Africa,,838634
Saratov,51.53,46.035,Russia,admin,838042
Bhubaneshwar,20.27,85.84,India,admin,837737
Yushu,44.826,126.55,China,minor,836098
Joao Pessoa,-7.12,-34.88,Brazil,admin,833932
Samarinda,-0.5,117.1378,Indonesia,admin,831460
Omaha,41.2627,-96.0529,United States,,826161
Qingping,34.539,113.391,China,minor,826031
Rongjiawan,29.15,113.1024,China,minor,826000
Weichanglu,37.1792,119.9333,China,minor,824708
Sakai,34.5733,135.4831,Japan,,824408
Eskisehir,39.7767,30.5206,Turkey,admin,820568
Renqiu,38.686,116.084,China,minor,816401
Wutong,30.6333,120.5333,China,minor,815848
Barcelona,10.1403,-64.6833,Venezuela,admin,815141
Wu'an,36.697,114.204,China,minor,811631
Sao Bernardo do Campo,-23.6939,-46.565,Brazil,minor,810729
McAllen,26.2252,-98.2467,United States,,810034
Narela,28.85,77.1,India,,809913
Bhayandar,19.29,72.85,India,,809378
Culiacan,24.8069,-107.3939,Mexico,admin,808416
N'Djamena,12.1053,15.0447,Chad,primary,807000
Xiashi,30.5333,120.6833,China,minor,806966
Cucuta,7.8942,-72.5039,Colombia,admin,806378
Danyang,32,119.586,China,,806300
Dongyang,29.2667,120.2167,China,minor,804398
Krakow,50.0614,19.9372,Poland,admin,804237
Oran,35.6969,-0.6331,Algeria,admin,803329
Pasig City,14.5605,121.0765,Philippines,admin,803159
Thessaloniki,40.6403,22.9356,Greece,admin,802572
Blantyre,-15.7861,35.0058,Malawi,admin,800264
Palermo,2.8917,-75.4375,Colombia,minor,800000
Qamdo,31.143,97.17,China,minor,798067
Karimnagar,18.4386,79.1288,India,,797447
Libreville,0.3901,9.4544,Gabon,primary,797003
Hejian,38.4466,116.0995,China,minor,795198
Seyhan,36.9831,35.3328,Turkey,minor,795012
Laiyang,36.9758,120.7136,China,,794986
Queretaro,20.5875,-100.3928,Mexico,admin,794789
Wuxi,26.58,111.841,China,minor,791939
Yiyang,26.4221,112.3999,China,minor,790676
Niigata,37.9161,139.0364,Japan,admin,790646
Vinh,18.6667,105.6667,Vietnam,admin,790000
Puxi,35.2125,114.735,China,minor,789300
Hempstead,40.6629,-73.6089,United States,,789177
Hamamatsu,34.7108,137.7275,Japan,,788211
Zijinglu,34.7667,112.9667,China,minor,785242
Kumila,35.25,73.5,Pakistan,,784711
Xingyi,25.092,104.8955,China,,783120
Xingcheng,24.1347,115.73,China,minor,779411
Birmingham,33.5279,-86.7971,United States,,778756
Ailan Mubage,43.908,81.2777,China,minor,778047
Lubango,-14.9167,13.5,Angola,admin,776249
Frankfurt,50.1106,8.6822,Germany,minor,775790
Homs,34.7319,36.7181,Syria,admin,775404
Bilbao,43.2569,-2.9236,Spain,minor,775000
San Luis Potosi,22.1511,-100.9761,Mexico,admin,772828
Bucheon,37.5,126.7833,"Korea, South",minor,772450
Fuyang,30.0553,119.95,China,minor,771000
Korla,41.7259,86.1746,China,minor,770000
Khujand,40.2833,69.6333,Tajikistan,admin,770000
Hamhung,39.9167,127.5333,"Korea, North",admin,768551
Erzurum,39.9086,41.2769,Turkey,admin,767848
Albuquerque,35.1054,-106.6465,United States,,767499
Zagreb,45.8131,15.9772,Croatia,primary,767131
Al `Ayn,24.2075,55.7447,United Arab Emirates,,766936
Dodoma,-6.1731,35.7419,Tanzania,primary,765179
Pikine,14.744,-17.4021,Senegal,,764597
Patiala,30.34,76.38,India,,763280
Bahawalpur,29.3956,71.6836,Pakistan,minor,762111
Qingnian,36.8494,115.7061,China,minor,760781
Sanhe,40.0167,117.0833,China,minor,760107
Kaduna,10.5167,7.4333,Nigeria,admin,760084
Winnipeg,49.8844,-97.1464,Canada,admin,758515
Baardheere,2.3447,42.2764,Somalia,,755500
Shishgarh,28.72,79.32,India,,753815
Leping,28.978,117.152,China,minor,753787
Colombo,6.9167,79.8333,Sri Lanka,primary,752993
Nerima,35.7356,139.6517,Japan,,752608
Natal,-5.795,-35.2089,Brazil,admin,751300
Lichuan,30.291,108.9364,China,,750670
Pendik,40.8747,29.235,Turkey,minor,750435
Gdansk,54.3475,18.6453,Poland,admin,749786
Licheng,31.4306,119.4788,China,minor,749522
Santo Andre,-23.6533,-46.528,Brazil,minor,748919
Andijon,40.7833,72.3333,Uzbekistan,admin,747800
Gaalkacyo,6.7697,47.4308,Somalia,admin,745000
Ota-ku,35.5614,139.7161,Japan,,744849
Thiruvananthapuram,8.5241,76.9366,India,admin,743691
Nampula,-15.1167,39.2667,Mozambique,admin,743000
Zhuanghe,39.681,122.967,China,,742496
Kyaukse,21.6131,96.1303,Burma,,741071
Tulsa,36.1283,-95.9042,United States,,740620
Chengguan,35.4623,113.8054,China,minor,740435
Bagcilar,41.0344,28.8564,Turkey,,740069
Bouake,7.6833,-5.0331,Côte d’Ivoire,admin,740000
Cabinda,-5.56,12.19,Angola,admin,739182
Kumamoto,32.8031,130.7078,Japan,admin,738385
Kerman,30.2625,57.0575,Iran,admin,738374
Lingbao Chengguanzhen,34.5176,110.8942,China,minor,736300
Orumiyeh,37.5439,45.0647,Iran,admin,736224
Quebec City,46.8139,-71.2081,Canada,admin,733156
Taihe,30.871,105.388,China,minor,732380
Yanggok,37.6333,127.2167,"Korea, South",,732376
Zhongba,31.771,104.755,China,minor,731343
Osogbo,7.7667,4.5667,Nigeria,admin,731000
Sizhan,38.9846,106.3828,China,,730400
Suohe,34.7833,113.35,China,minor,730135
Xiangxiang,27.7186,112.5502,China,,730103
Hamilton,43.2567,-79.8692,Canada,,729560
Songyang,34.4553,113.0253,China,minor,729332
Cagayan de Oro,8.48,124.65,Philippines,admin,728402
Qian'an,39.999,118.701,China,minor,728160
Shuangqiao,35.067,112.602,China,minor,727265
Chaohucun,31.6244,117.8902,China,,727162
Manama,26.2233,50.5875,Bahrain,primary,727000
Zouping,36.863,117.743,China,,726722
Charleston,32.8168,-79.9687,United States,,726389
Uvira,-3.4,29.15,Congo (Kinshasa),,726000
Durgapur,23.55,87.32,India,,726000
An Najaf,32.029,44.3396,Iraq,admin,724700
Fresno,36.783,-119.7939,United States,,724547
Cencheng,22.9167,111,China,minor,724364
Umraniye,41.0311,29.1081,Turkey,,723760
Sorocaba,-23.5019,-47.4578,Brazil,minor,723574
Guli,28.9,120.0333,China,,723490
Sagamihara,35.5667,139.3667,Japan,,722973
Laixi,36.8667,120.5333,China,,720103
Okayama,34.65,133.9167,Japan,admin,720043
Concepcion,-36.8282,-73.0514,Chile,admin,719944
San Pedro Sula,15.5062,-88.0249,Honduras,admin,719064
Mississauga,43.6,-79.65,Canada,,717961
Changsha,22.3773,112.6982,China,minor,717700
Lviv,49.8425,24.0322,Ukraine,admin,717273
Shihezi,44.3054,86.0804,China,minor,717000
Valenzuela,14.7,120.98,Philippines,admin,714978
Huambo,-12.7767,15.7347,Angola,admin,713134
Xichang,27.8944,102.2644,China,minor,712434
Guangshui,31.617,113.826,China,,710900
Zaporizhzhia,47.85,35.1175,Ukraine,admin,710052
Bhiwandi,19.2967,73.0631,India,,709665
Gaoyou,32.845,119.508,China,minor,709572
Chengxiang,31.564,121.174,China,minor,709500
Bhilwara,25.35,74.63,India,,709483
Oslo,59.9133,10.7389,Norway,primary,709037
George Town,5.4136,100.3294,Malaysia,admin,708127
Bristol,51.4536,-2.5975,United Kingdom,,707412
Zunhua,40.189,117.966,China,minor,707047
Saharanpur,29.9639,77.5458,India,,705478
Yenimahalle,39.9719,32.8119,Turkey,minor,704652
Warangal,17.9689,79.5941,India,,704570
Nampo,38.7356,125.4089,"Korea, North",,703317
Dasmarinas,14.33,120.94,Philippines,,703141
Shiliguri,26.71,88.43,India,,701489
Boosaaso,11.28,49.18,Somalia,admin,700906
Parachinar,33.9,70.1,Pakistan,,700000
Latakia,35.54,35.78,Syria,admin,700000
Tongchuan,34.897,108.945,China,minor,698322
Xindi,29.827,113.476,China,,698188
Edogawa,35.7,139.8833,Japan,,697932
General Santos,6.12,125.17,Philippines,admin,697315
Hamah,35.1503,36.73,Syria,admin,696863
Rochester,43.168,-77.6162,United States,,694707
Bauchi,10.5,10,Nigeria,admin,693700
Salem,11.65,78.15,India,,693236
Sinnuris,29.4072,30.8667,Egypt,,692701
Cocody,5.3351,-4.0039,Côte d’Ivoire,,692583
Lokoja,7.8019,6.7442,Nigeria,admin,692050
Guadalupe,25.6775,-100.2597,Mexico,minor,691931
Selcuklu,37.8814,32.4922,Turkey,minor,690667
Karbala',32.6167,44.0333,Iraq,admin,690100
Borvayeh-ye Al Bu `Aziz,31.6283,48.6147,Iran,,690000
City of Paranaque,14.5008,120.9915,Philippines,admin,689992
Taihecun,45.771,131.003,China,minor,689611
Mamak,39.9422,32.9231,Turkey,minor,687535
Jianshe,34.2137,113.7629,China,minor,687130
Zaragoza,41.65,-0.8833,Spain,admin,686986
Shishi,24.7167,118.7,China,minor,685930
Shizuoka,34.9756,138.3828,Japan,admin,685589
Agege,6.6219,3.3258,Nigeria,minor,683600
Mar del Plata,-38,-57.55,Argentina,minor,682605
Adachi,35.7833,139.8,Japan,,682326
Pontianak,-0.0206,109.3414,Indonesia,admin,680880
Rasht,37.2744,49.5889,Iran,admin,679995
Xigaze,29.25,88.8833,China,minor,679771
Cotonou,6.3667,2.4333,Benin,primary,679012
Tasikmalaya,-7.3161,108.1975,Indonesia,,678027
Kochi,9.9312,76.2673,India,,677381
Soledad,10.9167,-74.75,Colombia,minor,676014
Shanhu,29.6,120.8167,China,minor,675226
Gothenburg,57.7075,11.9675,Sweden,admin,674529
Acapulco de Juarez,16.8636,-99.8825,Mexico,minor,673478
Gorakhpur,26.7637,83.4039,India,,673446
Bahar,34.9078,48.4394,Iran,minor,673405
Wroclaw,51.11,17.0325,Poland,admin,672929
Murcia,37.9861,-1.1303,Spain,admin,672773
Pinghu,30.7,121.0167,China,,671326
Guankou,30.988,103.647,China,,671200
Lodz,51.7769,19.4547,Poland,admin,670642
Yatou,37.1653,122.4867,China,minor,670251
Denpasar,-8.6717,115.2339,Indonesia,admin,670210
Guntur,16.3008,80.4428,India,,670073
Tolyatti,53.5089,49.4222,Russia,,667956
Dayton,39.7805,-84.2003,United States,,667936
Ch'ongjin,41.7833,129.7667,"Korea, North",admin,667929
Zhaodong,46.051,125.962,China,minor,666532
Puyang Chengguanzhen,35.7004,114.98,China,minor,666322
Bulawayo,-20.17,28.58,Zimbabwe,admin,665952
Aracaju,-10.9111,-37.0717,Brazil,admin,664908
Bacoor,14.4624,120.9645,Philippines,,664625
Rotterdam,51.92,4.48,Netherlands,minor,664311
Tlaquepaque,20.6167,-103.3167,Mexico,minor,664193
Villavicencio,4.15,-73.6333,Colombia,admin,664148
Campo Grande,-20.4686,-54.6222,Brazil,admin,663621
Jingcheng,32.009,120.263,China,minor,663408
Makhachkala,42.9825,47.505,Russia,admin,662660
Banjarmasin,-3.32,114.5925,Indonesia,admin,662230
Kitwe,-12.8167,28.2,Zambia,,661901
Catia La Mar,10.6,-67.0333,Venezuela,minor,661897
Nneyi-Umuleri,6.3333,6.8333,Nigeria,,660821
Al Hufuf,25.3608,49.5997,Saudi Arabia,,660788
Dali,25.6811,100.3003,China,,660300
Jalingo,8.9,11.3667,Nigeria,admin,660213
Sargodha,32.0836,72.6711,Pakistan,minor,659862
Karaikandi,24.8309,92.6143,India,,659260
Ch'onan,36.81,127.1475,"Korea, South",,656583
Brampton,43.6833,-79.7667,Canada,,656480
Cape Coral,26.6443,-81.9957,United States,,656464
Haldwani,29.22,79.52,India,,656000
Abomey-Calavi,6.4486,2.3556,Benin,,655965
Yildirim,40.11,29.0821,Turkey,minor,655856
Dhulia,20.8997,74.7697,India,,655603
Zhongshu,27.7919,106.4013,China,,655300
Durango,24.025,-104.6675,Mexico,admin,654876
Songzi,30.174,111.757,China,,654762
Tondo,14.617,120.967,Philippines,,654220
Dayrut,27.5564,30.8106,Egypt,,653847
Tlalnepantla,19.5367,-99.1947,Mexico,minor,653410
Xiping,25.6005,103.8166,China,minor,652604
Osasco,-23.5328,-46.7919,Brazil,minor,652593
Hue,16.4619,107.5955,Vietnam,admin,652572
San Jose del Monte,14.8139,121.0453,Philippines,,651813
Denizli,37.7833,29.0964,Turkey,admin,651200
Maturin,9.75,-63.183,Venezuela,admin,647459
Honcho,35.6946,139.9826,Japan,,644668
Wuxue,29.844,115.561,China,minor,644247
Bhavnagar,21.76,72.15,India,,643382
Jinghong,22.009,100.797,China,minor,642737
Wugang,26.7266,110.6319,China,,640181
Sha Tin,22.3802,114.1898,Hong Kong,,640000
Provo,40.2457,-111.6457,United States,,639820
Chisinau,47.0228,28.8353,Moldova,primary,639000
Petaling Jaya,3.0833,101.65,Malaysia,,638516
Colorado Springs,38.8674,-104.7605,United States,,638421
Tallinn,59.4372,24.7453,Estonia,primary,638076
Noida,28.57,77.32,India,,637272
Las Palmas,28.1258,-15.4353,Spain,admin,635000
Mission Viejo,33.6096,-117.6551,United States,,634674
Bhangar,22.58,88.42,India,,634107
Allentown,40.5961,-75.4756,United States,,632175
Benghazi,32.1167,20.0667,Libya,admin,631555
Chuxiong,25.033,101.5459,China,,631530
Dusseldorf,51.2256,6.7767,Germany,admin,631217
Palermo,38.1157,13.3613,Italy,admin,630167
Baton Rouge,30.442,-91.1311,United States,admin,630063
Makati City,14.5567,121.0214,Philippines,admin,629616
Ndola,-12.9689,28.6325,Zambia,admin,627503
Tukh,30.3549,31.2011,Egypt,,627290
Glasgow,55.8611,-4.25,United Kingdom,,626410
Bazal'tove,50.6765,26.16,Ukraine,,625543
Al Qatif,26.5196,50.0115,Saudi Arabia,,625092
Bhilai,21.21,81.38,India,,624700
Mangalore,12.8717,74.8425,India,,623841
Kaihua,23.387,104.233,China,minor,623772
Irkutsk,52.2892,104.28,Russia,admin,623736
Ogden,41.2279,-111.9682,United States,,623688
Meilan,19.999,110.403,China,,623667
Ansan,37.3167,126.8333,"Korea, South",,623256
Barnaul,53.3486,83.7764,Russia,admin,623057
Bazhou,39.1333,116.3833,China,minor,622975
Turpan,42.9512,89.1895,China,minor,622903
Jos,9.9167,8.8903,Nigeria,admin,622802
Langzhong,31.558,106.005,China,minor,622667
Qufu,35.5819,116.9862,China,,621971
Al Mansurah,31.05,31.3833,Egypt,admin,621953
Tengyue,25.0167,98.4833,China,minor,620000
Leipzig,51.34,12.375,Germany,minor,619879
Halwan,29.8493,31.3327,Egypt,,619293
Tan An,10.905,106.6994,Vietnam,,618984
Port-Bouet,5.2568,-3.963,Côte d’Ivoire,,618795
Izhevsk,56.8333,53.1833,Russia,admin,618776
Knoxville,35.9692,-83.9496,United States,,618226
Jurong,31.946,119.164,China,,617706
Arusha,-3.3667,36.6833,Tanzania,admin,617631
Bihta,25.5619,84.87,India,,617427
Yuhuan,28.1277,121.2288,China,,616346
Khabarovsk,48.4833,135.0833,Russia,admin,615570
Etimesgut,39.9458,32.6694,Turkey,minor,614891
Changping,40.2248,116.1944,China,,614821
Chimalhuacan,19.4131,-98.9839,Mexico,minor,614453
Kandahar,31.62,65.7158,Afghanistan,admin,614254
Oujda-Angad,34.6867,-1.9114,Morocco,admin,614000
Ruiming,25.886,116.027,China,,613894
Serang,-6.12,106.1503,Indonesia,admin,613356
Ulyanovsk,54.3167,48.3667,Russia,admin,613334
Shenzhou,38.002,115.56,China,minor,613000
Jambi,-1.59,103.61,Indonesia,admin,612162
Hasanpur,28.72,78.28,India,,611533
Grand Rapids,42.9619,-85.6562,United States,,611480
Yukarikaraman,36.9167,30.6833,Turkey,,608675
Kuantan,3.83,103.32,Malaysia,admin,607778
Gold Coast,-28.0167,153.4,Australia,,607665
Kawaguchi,35.8077,139.7241,Japan,,607373
Dashiqiao,40.6167,122.5167,China,minor,607098
Las Pinas City,14.45,120.98,Philippines,,606293
Cuttack,20.5236,85.7881,India,,606007
San Miguel de Tucuman,-26.8167,-65.2167,Argentina,admin,605767
Ar Rayyan,25.25,51.4,Qatar,admin,605712
Riga,56.9475,24.1069,Latvia,primary,605273
Columbia,34.0378,-80.9036,United States,admin,605083
Salimpur,26.3,83.9167,India,,604483
Malanje,-9.5333,16.35,Angola,admin,604215
Kryvyi Rih,47.91,33.39,Ukraine,minor,603904
Djibouti,11.5944,43.1481,Djibouti,primary,603900
Zhuozhou,39.485,115.974,China,minor,603535
Tianchang,32.6811,119.0137,China,minor,602840
Albany,42.6664,-73.7987,United States,admin,602242
Bacolod,10.6765,122.9509,Philippines,admin,600783
Garoua,9.3,13.4,Cameroon,admin,600000
Bamenda,5.9614,10.1517,Cameroon,admin,600000
Bafoussam,5.4667,10.4167,Cameroon,admin,600000
Haifa,32.8192,34.9992,Israel,admin,600000
Raurkela,22.2492,84.8828,India,,600000
Tunis,36.8064,10.1817,Tunisia,primary,599368
Tumkur,13.34,77.1,India,,599078
Balikpapan,-1.2768,116.8277,Indonesia,,598043
Somolu,6.5408,3.3872,Nigeria,minor,597400
Sanliurfa,37.1583,38.7917,Turkey,admin,596637
Dortmund,51.5139,7.4653,Germany,minor,595471
Al Mukalla,14.5333,49.1333,Yemen,admin,594951
Xinji,37.943,115.218,China,minor,594628
Melikgazi,38.7167,35.5,Turkey,minor,594344
Kagoshima,31.5969,130.5572,Japan,admin,593754
Wenchang,31.0358,116.9367,China,minor,593629
Sihui,23.3265,112.7338,China,,593400
Irapuato,20.6667,-101.35,Mexico,minor,592953
Dublin,53.3497,-6.2603,Ireland,primary,592713
Al Mahallah al Kubra,30.9667,31.1667,Egypt,,592573
Sialkot City,32.4925,74.5311,Pakistan,minor,591668
Vladivostok,43.115,131.8853,Russia,admin,591628
Luocheng,30.99,104.25,China,minor,591115
Pereira,4.8143,-75.6946,Colombia,admin,590554
Gaza,31.5069,34.456,Gaza Strip,primary,590481
Reynosa,26.0922,-98.2778,Mexico,minor,589466
Zahedan,29.5025,60.8558,Iran,admin,587730
Essen,51.4508,7.0131,Germany,minor,586608
Cimahi,-6.8712,107.5548,Indonesia,,586580
Wenlan,23.3961,103.3649,China,minor,585976
Itabashi,35.7667,139.6833,Japan,,584483
Shah Alam,3.0667,101.55,Malaysia,admin,584340
Suginami-ku,35.6994,139.6364,Japan,,583609
Jaboatao dos Guararapes,-8.1128,-35.015,Brazil,minor,581556
Vilnius,54.6872,25.28,Lithuania,primary,581475
Kingston,17.9714,-76.7931,Jamaica,primary,580000
Al Mafraq,32.3399,36.2052,Jordan,admin,580000
At Ta'if,21.2667,40.4167,Saudi Arabia,,579970
Port Sudan,19.6158,37.2164,Sudan,admin,579942
Nha Trang,12.245,109.1917,Vietnam,admin,579000
Tuxtla,16.7528,-93.1167,Mexico,admin,578830
Bakersfield,35.3529,-119.0359,United States,,578542
Dehra Dun,30.345,78.029,India,admin,578420
Bremen,53.0758,8.8072,Germany,admin,577026
Fu'an,27.1,119.6333,China,minor,577000
Mymensingh,24.7504,90.38,Bangladesh,admin,576927
Hachioji,35.6664,139.316,Japan,,575721
Iloilo,10.72,122.57,Philippines,admin,574000
Puente Alto,-33.6167,-70.5667,Chile,minor,573935
Botou,38.0833,116.5833,China,minor,573842
Rabat,34.0209,-6.8416,Morocco,primary,572717
Sincan,39.9594,32.5767,Turkey,minor,572609
Kabinda,-6.13,24.48,Congo (Kinshasa),admin,572000
Kottayam,9.5916,76.5222,India,,571856
Kahramanmaras,37.5833,36.9333,Turkey,admin,571266
Shibin al Qanatir,30.3127,31.3202,Egypt,,570868
Tonala,20.6167,-103.2333,Mexico,minor,569913
Abu Hummus,31.0931,30.3142,Egypt,,569157
Irbid,32.55,35.85,Jordan,admin,569068
Jin'e,29.3394,105.2875,China,minor,568900
Macau,22.2006,113.5461,Macau,,568700
Xinxing,39.8667,124.15,China,minor,568566
Surrey,49.19,-122.8489,Canada,,568322
Yaroslavl,57.6167,39.85,Russia,admin,567443
Qionghu,28.945,112.598,China,minor,567159
Dresden,51.05,13.74,Germany,admin,566222
Xinmin,41.997,122.823,China,,565634
New Haven,41.3113,-72.9246,United States,,565056
Antwerp,51.2178,4.4003,Belgium,minor,565039
Kuiju,36.8667,119.4,China,minor,564501
Asansol,23.68,86.99,India,,563917
Bokaro Steel City,23.67,86.15,India,,563417
Jieshou,33.257,115.3746,China,,561956
Bello,6.3333,-75.5667,Colombia,minor,561955
Kolhapur,16.6917,74.2333,India,,561489
Wencheng,19.617,110.7551,China,minor,560894
Miluo Chengguanzhen,28.761,113.16,China,minor,560725
Lanxi,29.208,119.458,China,,560514
Zhenzhou,32.2723,119.1848,China,minor,560258
Des Moines,41.5725,-93.6105,United States,admin,560170
Nava Raipur,21.161,81.787,India,,560000
Gaizhou,40.4,122.35,China,minor,559271
Leling,37.73,117.232,China,minor,559166
Genoa,44.4072,8.934,Italy,admin,558745
Ensenada,31.8578,-116.6058,Mexico,minor,557430
Herat,34.3419,62.2031,Afghanistan,admin,556205
Uyo,5.0333,7.9275,Nigeria,admin,554906
Hamadan,34.8064,48.5161,Iran,admin,554406
Chiclayo,-6.763,-79.8366,Peru,admin,552508
Surakarta,-7.5667,110.8167,Indonesia,,552118
Ajmer,26.4499,74.6399,India,,551101
Braunschweig,52.2667,10.5167,Germany,minor,551000
Nanded,19.15,77.3,India,,550439
Wuhai,39.655,106.794,China,minor,550000
Palma,39.5667,2.65,Spain,admin,550000
Rustenburg,-25.6667,27.2428,South Africa,,549575
Amravati,20.9258,77.7647,India,,549370
Lisbon,38.7122,-9.134,Portugal,primary,548703
Yanji,42.9,129.5,China,minor,548700
The Hague,52.08,4.31,Netherlands,primary,548320
Hannover,52.3667,9.7167,Germany,admin,548186
Sevastopol,44.605,33.5225,Ukraine,admin,547820
Palm Bay,27.9631,-80.6593,United States,,547659
Manchester,53.479,-2.2452,United Kingdom,,547627
Nellore,14.4431,79.9861,India,,547621
Poznan,52.4083,16.9336,Poland,admin,546859
Ibague,4.4333,-75.2333,Colombia,admin,546003
Wancheng,18.8,110.4,China,minor,545992
Tomsk,56.5,84.9667,Russia,admin,545391
Sungai Petani,5.6497,100.4793,Malaysia,,544851
Xinshi,31.1333,113.1167,China,minor,544843
Kemerovo,55.3667,86.0667,Russia,admin,544600
Naberezhnyye Chelny,55.6833,52.3167,Russia,,544383
Valledupar,10.4833,-73.25,Colombia,admin,544134
Muntinlupa City,14.38,121.05,Philippines,admin,543445
K'ebri Beyah,9.0833,43.0833,Ethiopia,,543272
Luofeng,37.359,120.396,China,minor,543127
Ghulja,43.9,81.35,China,minor,542507
Ixtapaluca,19.3186,-98.8822,Mexico,minor,542211
Fuding,27.2,120.2,China,minor,542000
Heroica Matamoros,25.8797,-97.5042,Mexico,minor,541979
Mbeya,-8.9,33.45,Tanzania,admin,541603
An Nasiriyah,31.0439,46.2575,Iraq,admin,541600
Al Hillah,32.4833,44.4333,Iraq,admin,541034
Lingyuan,41.25,119.4,China,,540832
Juiz de Fora,-21.7642,-43.3503,Brazil,minor,540756
Guixi,28.2925,117.2454,China,minor,540572
City of Calamba,14.22,121.17,Philippines,,539671
Sao Jose dos Campos,-23.1789,-45.8869,Brazil,minor,539313
Akron,41.0798,-81.5219,United States,,538659
El Geneina,13.45,22.44,Sudan,admin,538390
Contagem,-19.9319,-44.0539,Brazil,minor,538017
Santa Cruz,28.4667,-16.25,Spain,admin,538000
Agadir,30.4214,-9.5831,Morocco,admin,538000
Orenburg,51.7833,55.1,Russia,admin,536862
Nilufer,40.2833,28.95,Turkey,minor,536365
Leeds,53.7975,-1.5436,United Kingdom,,536280
Kassala,15.45,36.4,Sudan,admin,536009
Aksu,41.185,80.2904,China,minor,535657
Salta,-24.7833,-65.4167,Argentina,admin,535303
Dispur,26.1397,91.7925,India,admin,534872
Gulbarga,17.329,76.825,India,,533587
Nansana,0.3639,32.5286,Uganda,,532800
Kimhae,35.2342,128.8811,"Korea, South",,531966
Novokuznetsk,53.7667,87.1333,Russia,,531186
Beira,-19.8333,34.85,Mozambique,admin,530604
Balashikha,55.8167,37.9667,Russia,minor,530311
Yazd,31.8822,54.3397,Iran,admin,529673
Ardabil,38.2517,48.2975,Iran,admin,529374
Touba,14.8667,-15.8833,Senegal,,529176
Bikaner,28.0167,73.3119,India,,529007
Gaobeidian,39.327,115.874,China,minor,528903
Mixco,14.6331,-90.6064,Guatemala,minor,527828
Himeji,34.8167,134.6833,Japan,,527596
Bandar `Abbas,27.1961,56.2878,Iran,admin,526648
Nuremberg,49.4539,11.0775,Germany,minor,526091
Concord,37.9722,-122.0016,United States,,525233
Van,38.4942,43.38,Turkey,admin,525016
Port Said,31.2625,32.3061,Egypt,admin,524433
Koto-ku,35.6667,139.8167,Japan,,523419
Ciudad Apodaca,25.7817,-100.1886,Mexico,minor,523370
Kitchener,43.4186,-80.4728,Canada,,522888
Agartala,23.8314,91.2869,India,admin,522613
Soacha,4.5872,-74.2214,Colombia,minor,522442
Buca,38.35,27.1667,Turkey,minor,522404
Maipu,-33.5167,-70.7667,Chile,,521627
Arak,34.0914,49.6933,Iran,admin,520944
Lyon,45.76,4.84,France,admin,520774
Tultitlan de Mariano Escobedo,19.645,-99.1694,Mexico,minor,520557
Ryazan,54.63,39.7425,Russia,admin,520509
Meknes,33.895,-5.5547,Morocco,,520428
Luanzhou,39.741,118.704,China,minor,520102
Al Fayyum,29.3,30.8333,Egypt,admin,519047
Utsunomiya,36.555,139.8825,Japan,admin,518197
Sheffield,53.3808,-1.4703,United Kingdom,,518090
Chanda,19.95,79.297,India,,518000
Suez,29.9667,32.5333,Egypt,admin,516959
Heshan,22.7667,112.95,China,,516500
Loni,28.75,77.28,India,,516082
Jiaji,19.2431,110.4642,China,minor,515700
Qaraghandy,49.8028,73.1056,Kazakhstan,admin,515632
Santa Marta,11.2419,-74.2053,Colombia,admin,515556
Ujjain,23.17,75.79,India,,515215
Abu Tisht,26.1204,32.0954,Egypt,,514535
Samarkand,39.6547,66.9758,Uzbekistan,admin,513572
Liverpool,53.4072,-2.9917,United Kingdom,,513441
Macapa,0.033,-51.05,Brazil,admin,512902
Benguela,-12.55,13.4167,Angola,admin,512886
Cuito,-12.3833,16.9333,Angola,admin,512706
Al Fashn,28.8231,30.899,Egypt,,512242
Toulouse,43.6045,1.444,France,admin,511684
Al `Amarah,31.8333,47.15,Iraq,admin,511500
Carrefour,18.5333,-72.4,Haiti,,511345
Campos,-21.7523,-41.3304,Brazil,minor,511168
Cadaado,6.1393,46.6241,Somalia,,510654
Meihekou,42.5407,125.7107,China,minor,509336
Kenitra,34.25,-6.5833,Morocco,,507736
Newcastle,-27.7464,29.9328,South Africa,,507710
Mesa,33.4015,-111.7178,United States,,507478
Jhansi,25.4486,78.5696,India,,507000
Matsuyama,33.8333,132.7667,Japan,admin,506743
Ulhasnagar,19.22,73.15,India,,506098
Ribeirao Preto,-21.1776,-47.8101,Brazil,minor,504923
Pohang,36.0322,129.365,"Korea, South",minor,503780
Duisburg,51.4347,6.7625,Germany,minor,503707
Jammu,32.73,74.87,India,admin,502197
Ile-Ife,7.4833,4.5592,Nigeria,minor,501952
Wichita,37.6895,-97.3443,United States,,501760
Mazatlan,23.2167,-106.4167,Mexico,minor,501441
Uberlandia,-18.9189,-48.2769,Brazil,minor,501214
Homyel',52.4453,30.9842,Belarus,admin,501102
Farah,32.3436,62.1194,Afghanistan,admin,500000
Belas,-8.9983,13.265,Angola,,500000
Talatona,-8.9167,13.1833,Angola,,500000
Nenjiang,49.11,125.13,China,minor,500000
Tuticorin,8.8056,78.145,India,,500000
Asaba,6.1833,6.7333,Nigeria,admin,500000
El Fasher,13.63,25.35,Sudan,admin,500000
Sukkur,27.7061,68.8483,Pakistan,minor,499900
K'ebri Dehar,6.7333,44.2667,Ethiopia,,499500
Harrisburg,40.2752,-76.8843,United States,admin,499494
Taozhou,30.8956,119.411,China,minor,499132
Anlu,31.2667,113.6667,China,minor,498356
Lapu-Lapu City,10.3127,123.9488,Philippines,admin,497604
Matsudo,35.7876,139.9032,Japan,,497514
Johor Bahru,1.482,103.7281,Malaysia,admin,497097
Purnea,25.778,87.476,India,,496830
Imus,14.4297,120.9367,Philippines,,496794
Niteroi,-22.8833,-43.1036,Brazil,minor,496696
Lipetsk,52.6167,39.6,Russia,admin,496403
Cheboksary,56.15,47.2333,Russia,admin,496350
Staten Island,40.5834,-74.1496,United States,,495747
Likasi,-10.9833,26.7333,Congo (Kinshasa),,495000
Xiangyang,34.2995,108.4905,China,,494887
Jiangshan,28.7361,118.625,China,,494412
Duyun,26.2594,107.5186,China,,493574
Pindi Bhattian,31.8958,73.2761,Pakistan,,493222
Nyala,12.05,24.8833,Sudan,admin,492984
Ichikawa,35.7219,139.9311,Japan,,492749
Villa Nueva,14.5269,-90.5875,Guatemala,minor,492480
Kumul,42.8193,93.5151,China,minor,492096
Toledo,41.6638,-83.5827,United States,,492076
Bissau,11.85,-15.5667,Guinea-Bissau,primary,492004
Accra,5.5461,-0.2067,Ghana,primary,491817
Kota Bharu,6.12,102.23,Malaysia,admin,491237
Higashi-osaka,34.6794,135.6008,Japan,,490819
Larkana,27.5583,68.2111,Pakistan,minor,490508
Xingcheng,40.6167,120.7333,China,,490300
`Ajman,25.4136,55.4456,United Arab Emirates,admin,490035
Ciudad Lopez Mateos,19.55,-99.2833,Mexico,minor,489937
Kaliningrad,54.7003,20.4531,Russia,admin,489584
Yueqing,28.12,120.96,China,,488980
Penza,53.2,45,Russia,admin,488299
Belgaum,15.85,74.5,India,,488157
Edinburgh,55.95,-3.1833,United Kingdom,,488050
Yucheng,36.934,116.638,China,minor,488014
Brookhaven,40.832,-72.9517,United States,,487817
Worcester,42.2705,-71.8079,United States,,487014
Nishinomiya-hama,34.7376,135.3416,Japan,,487010
Karamay,45.5799,84.8892,China,minor,487000
Kawachicho,34.6794,135.6008,Japan,,486464
Zhangshu,28.0546,115.5462,China,,485649
Mingguang,32.7833,117.9667,China,,485627
Malatya,38.3486,38.3194,Turkey,admin,485484
Garoowe,8.4,48.4833,Somalia,admin,485000
Vellore,12.9165,79.1325,India,,484690
Huanghua,38.372,117.33,China,minor,484313
Encheng,22.1833,112.3,China,minor,483907
Lianran,24.919,102.478,China,minor,483753
Kartal,40.8872,29.19,Turkey,minor,483418
Cuiaba,-15.5958,-56.0969,Brazil,admin,483346
Akhmim,26.5667,31.75,Egypt,,482666
Az Zarqa',32.0833,36.1,Jordan,admin,481300
Malegaon,20.55,74.55,India,,481228
Feira de Santana,-12.2669,-38.9669,Brazil,minor,480949
Hailun,47.4667,126.9667,China,minor,480216
Valletta,35.8983,14.5125,Malta,primary,480134
Kolwezi,-10.7167,25.4667,Congo (Kinshasa),admin,480000
Jamnagar,22.47,70.07,India,,479920
Sylhet,24.9,91.8667,Bangladesh,admin,479837
Ananindeua,-1.3658,-48.3719,Brazil,minor,478778
Berbera,10.4396,45.0143,Somalia,,478000
Chiniot,31.7194,72.9842,Pakistan,minor,477781
Asuncion,-25.2945,-57.6435,Paraguay,primary,477346
Chengjiao,35.3984,114.0649,China,minor,476867
Bardoli,21.12,73.12,India,,475963
Bratislava,48.1447,17.1128,Slovakia,primary,475503
Kurashiki,34.585,133.7722,Japan,,474862
Oita,33.2333,131.6067,Japan,admin,474804
Al Jubayl,27.0046,49.646,Saudi Arabia,,474679
Worthing,50.8147,-0.3714,United Kingdom,,474485
Gaya,24.75,85.01,India,,474093
Port St. Lucie,27.2796,-80.3884,United States,,473733
Xiulin,29.7209,112.4254,China,,473707
Shekhupura,31.7111,73.9878,Pakistan,minor,473129
Piura,-5.2,-80.6333,Peru,admin,473025
Vila Velha,-20.3364,-40.2936,Brazil,minor,472762
Ar Rusayfah,32.0178,36.0464,Jordan,minor,472604
Kirov,58.6,49.6833,Russia,admin,471754
Morogoro,-6.8242,37.6633,Tanzania,admin,471409
San Juan,-31.5342,-68.5261,Argentina,admin,471389
Mykolaiv,46.975,31.995,Ukraine,admin,470011
Yicheng,31.721,112.257,China,minor,469417
Fengcheng,40.45,124.0667,China,,469376
Mazar-e Sharif,36.7,67.1167,Afghanistan,admin,469247
Xiaoyi,36.0833,111.5167,China,,468770
Ba`qubah,33.7447,44.6436,Iraq,admin,467900
Katlehong,-26.3333,28.15,South Africa,,467890
Tel Aviv-Yafo,32.08,34.78,Israel,admin,467875
Jiangshandicun,28.7412,118.6225,China,,467862
Little Rock,34.7256,-92.3577,United States,admin,467846
Qingzhen,26.5704,106.4687,China,,467438
Buraydah,26.3664,43.9628,Saudi Arabia,admin,467410
Kupang,-10.1702,123.6077,Indonesia,admin,466632
Tula,54.2,37.6167,Russia,admin,466609
Ambattur,13.1143,80.1548,India,,466205
Nakhon Ratchasima,14.9806,102.1,Thailand,admin,466098
Tan Uyen,11.0508,106.7636,Vietnam,minor,466053
Astrakhan,46.35,48.035,Russia,admin,465524
Longjiang,27.5819,120.5489,China,,464695
Leicester,52.6361,-1.1331,United Kingdom,,464395
Rushan,36.87,121.505,China,minor,464078
Shangzhi,45.207,127.965,China,minor,463358
Angeles City,15.1472,120.5847,Philippines,admin,462928
Kuqa,41.7156,82.9322,China,minor,462588
Kanazawa,36.5611,136.6564,Japan,admin,462479
Manado Light,1.4858,124.8347,Indonesia,,461636
Manado,1.4931,124.8413,Indonesia,admin,461636
Kaiyuan,42.546,124.038,China,,460927
Cranbourne,-38.0996,145.2834,Australia,,460491
Jalgaon,21.004,75.568,India,,460468
Madison,43.0822,-89.393,United States,admin,460255
Chhatarpur,24.55,79.3527,India,,459943
Fukuyama,34.4858,133.3622,Japan,,459576
Juba,4.83,31.58,South Sudan,primary,459342
Lanus,-34.7,-58.4,Argentina,minor,459263
Spokane,47.6671,-117.433,United States,,458988
Ta`izz,13.5789,44.0219,Yemen,admin,458789
Long Beach,33.7977,-118.167,United States,,458491
Kikwit,-5.0386,18.8181,Congo (Kinshasa),,458000
Pyeongtaek,36.9922,127.1128,"Korea, South",,457873
Kurnool,15.83,78.05,India,,457633
Marikina City,14.65,121.1,Philippines,admin,456059
Kagithane,41.0719,28.9664,Turkey,,455943
Amagasaki,34.7333,135.4,Japan,,455555
Melaka,2.2064,102.2465,Malaysia,admin,455300
Denton,33.2175,-97.1418,United States,,455152
Ciudad General Escobedo,25.7933,-100.1583,Mexico,minor,454967
Reno,39.5497,-119.8483,United States,,454814
Manizales,5.0675,-75.51,Colombia,admin,454494
Bornova,38.4697,27.2211,Turkey,minor,454470
Puerto La Cruz,10.2,-64.6333,Venezuela,minor,454312
Kahama,-3.8375,32.6,Tanzania,,453654
Hsinchu,24.8167,120.9833,Taiwan,admin,453536
Gaoping,35.798,112.924,China,,453054
Batman,37.887,41.132,Turkey,admin,452157
Demiryol,37.887,41.132,Turkey,,452157
Erkoklu,37.887,41.132,Turkey,,452157
Avcilar,40.9792,28.7214,Turkey,,452132
Kota Kinabalu,5.98,116.11,Malaysia,admin,452058
Katsushika-ku,35.7333,139.85,Japan,,451772
Udaipur,24.58,73.68,India,,451100
Mogi das Cruzes,-23.5228,-46.1931,Brazil,minor,450785
Stavropol,45.05,41.9833,Russia,admin,450680
General Trias,14.38,120.88,Philippines,,450583
Warder,6.9667,45.35,Ethiopia,,450400
Sirajganj,24.45,89.7167,Bangladesh,,450000
Wapi,20.372,72.917,India,,450000
Bac Giang,21.2667,106.2,Vietnam,admin,450000
Boise,43.6005,-116.2308,United States,admin,449428
Zurich,47.3744,8.5411,Switzerland,admin,448664
Constantine,36.35,6.6,Algeria,admin,448374
Nam Dinh,20.42,106.1683,Vietnam,admin,448225
Eslamshahr,35.5386,51.2228,Iran,minor,448129
Rajshahi,24.3667,88.6,Bangladesh,admin,448087
Piraeus,37.943,23.6469,Greece,minor,448051
Matadi,-5.8167,13.4833,Congo (Kinshasa),admin,448000
Zebediela,-24.31,29.27,South Africa,,448000
Shah Latif Town,24.8806,67.1625,Pakistan,,447993
Tanbei,35.088,112.951,China,minor,447487
Londrina,-23.31,-51.1628,Brazil,minor,447065
Ado-Ekiti,7.6211,5.2214,Nigeria,admin,446749
Bonita Springs,26.3558,-81.7859,United States,,445500
Esenler,41.0339,28.8903,Turkey,,445421
Sochi,43.5853,39.7203,Russia,minor,444989
Santiago de Cuba,20.0217,-75.8294,Cuba,admin,444851
Rodriguez,14.72,121.12,Philippines,,443954
Chauddagram,23.2244,91.3731,Bangladesh,,443648
San Nicolas de los Garza,25.75,-100.2833,Mexico,minor,443273
Taoyuan District,24.9913,121.3143,Taiwan,admin,443273
Kissimmee,28.3041,-81.4169,United States,,442790
Baisha,29.4896,119.337,China,,442709
Ndjili,-4.4089,15.3775,Congo (Kinshasa),,442138
Mathura,27.4925,77.6736,India,,441894
Meicheng,30.631,116.581,China,minor,441224
Lembok,-8.565,116.351,Indonesia,,441147
Korhogo,9.4578,-5.6294,Côte d’Ivoire,admin,440926
Pasay City,14.5439,120.995,Philippines,admin,440656
Beipiao,41.801,120.771,China,,439998
Jiannan,31.3333,104.2,China,minor,439958
Halifax,44.6475,-63.5906,Canada,admin,439819
Fujisawa,35.35,139.4667,Japan,,439728
Augusta,33.3645,-82.0708,United States,,439361
Ulan-Ude,51.8333,107.6,Russia,admin,439128
Springfield,42.1155,-72.5395,United States,,438889
Laval,45.5833,-73.75,Canada,,438366
Oakland,37.7904,-122.2166,United States,,438072
Jinchang,38.5214,102.188,China,minor,438026
Sunch'on,39.4167,125.9333,"Korea, North",,437000
Nehe,48.4833,124.8833,China,minor,436906
Kursk,51.7167,36.1833,Russia,admin,436678
Sangli,16.853,74.583,India,,436639
Lobito,-12.35,13.5464,Angola,,436467
Jeju,33.513,126.523,"Korea, South",admin,435413
Zhuangyuan,37.3056,120.829,China,minor,435405
Davangere,14.4666,75.9242,India,,435125
Jian'ou,27.0333,118.3167,China,minor,434451
Machida,35.5542,139.4431,Japan,,434414
Winston-Salem,36.1029,-80.261,United States,,434231
Sanghar,26.0442,68.9536,Pakistan,minor,434087
Chang'an,29.4768,113.4504,China,minor,433200
Al Maraghah,26.6998,31.6046,Egypt,,432678
Bandung,-6.912,107.6097,Indonesia,admin,432557
Shahe,36.8549,114.5033,China,minor,431746
Calicut,11.2588,75.7804,India,minor,431560
Windhoek,-22.57,17.0836,Namibia,primary,431000
Joinvile,-26.3039,-48.8458,Brazil,minor,429604
Ismailia,30.5833,32.2667,Egypt,admin,429465
Cusco,-13.525,-71.9722,Peru,admin,428450
Veracruz,19.1903,-96.1533,Mexico,minor,428323
Sokoto,13.0833,5.25,Nigeria,admin,427760
Kashiwa,35.8676,139.9758,Japan,,427603
Al Bajur,30.4305,31.0368,Egypt,,427017
Yan'an Beilu,44.0144,87.2674,China,minor,426253
Mothihari,26.65,84.9167,India,,426158
Aomori,40.8228,140.7469,Japan,admin,425962
Tepic,21.5083,-104.8931,Mexico,admin,425942
Akola,20.7,77,India,,425817
Mandaluyong City,14.58,121.03,Philippines,admin,425758
Aves,41.3703,-8.4101,Portugal,,425411
Sihung,37.3799,126.8029,"Korea, South",,425184
Burco,9.5221,45.5336,Somalia,admin,425000
Tver,56.8625,35.9242,Russia,admin,424969
Xalapa,19.54,-96.9275,Mexico,admin,424755
Buenaventura,3.8772,-77.0267,Colombia,minor,423927
London,42.9836,-81.2497,Canada,,423369
Piracicaba,-22.7252,-47.6493,Brazil,minor,423323
Tetouan,35.5667,-5.3667,Morocco,,422757
Yogyakarta,-7.8014,110.3644,Indonesia,admin,422732
Ciudad Bolivar,8.1219,-63.55,Venezuela,admin,422578
Skopje,41.9961,21.4317,North Macedonia,primary,422540
Beining,41.6,121.8,China,,422289
Toyota,35.0824,137.1563,Japan,,422106
Daloa,6.89,-6.45,Côte d’Ivoire,admin,421871
Uijeongbu,37.7486,127.0389,"Korea, South",,421579
Hpa-An,16.8906,97.6333,Burma,admin,421525
Laohekou,32.359,111.684,China,,420495
Rahimyar Khan,28.42,70.3,Pakistan,,420419
Ugep,5.8,8.0833,Nigeria,minor,420000
Thai Nguyen,21.6,105.85,Vietnam,admin,420000
Seremban,2.7105,101.94,Malaysia,admin,419536
Kayapinar,37.95,40.1667,Turkey,minor,419513
Campina Grande,-7.2306,-35.8811,Brazil,minor,419379
Xicheng,23.3667,103.15,China,minor,419314
Kowloon City,22.3282,114.1916,Hong Kong,,418732
Santos,-23.9608,-46.3339,Brazil,minor,418608
Tirana,41.3272,19.8186,Albania,primary,418495
Kushtia,23.9,89.12,Bangladesh,,418312
El Obeid,13.1833,30.2167,Sudan,admin,418280
Maua,-23.6678,-46.4608,Brazil,minor,418261
Xingren,25.435,105.1862,China,,417919
Takamatsu,34.35,134.05,Japan,admin,417814
Stockton,37.9765,-121.3109,United States,,416005
Ajdabiya,30.77,20.22,Libya,admin,416000
Callao,-12.0522,-77.1392,Peru,admin,415888
Awsim,30.1222,31.1333,Egypt,,415735
Shinagawa-ku,35.6,139.7333,Japan,,415729
Paju,37.8667,126.8,"Korea, South",minor,415345
Beylikduzu,41.0011,28.6419,Turkey,,415290
Viet Tri,21.3,105.4333,Vietnam,admin,415280
Santa Rosa,14.32,121.12,Philippines,,414812
Nagqu,31.476,92.051,China,minor,414554
Bettiah,26.8014,84.5028,India,,414453
Jhang City,31.2694,72.3161,Pakistan,minor,414131
Fujin,47.25,132.0333,China,minor,414090
Altindag,39.9636,32.9033,Turkey,minor,413994
Yuanping,38.731,112.711,China,,413922
Tala,30.6798,30.9436,Egypt,,413839
Talkha,31.0592,31.3767,Egypt,,413584
Boa Vista,2.82,-60.6719,Brazil,admin,413486
Banjul,13.4581,-16.5786,"Gambia, The",primary,413397
Jayapura,-2.533,140.717,Indonesia,admin,413283
Toyama,36.6959,137.2137,Japan,admin,413028
Sanandaj,35.3114,46.9961,Iran,admin,412767
Khon Kaen,16.4333,102.8333,Thailand,admin,412758
Linghai,41.1667,121.35,China,,412513
Shorapur,16.52,76.76,India,,412291
Koumassi,5.2972,-3.9675,Côte d’Ivoire,,412282
Durham,35.9792,-78.9022,United States,,411362
Tinnevelly,8.7136,77.7567,India,,411298
Pasto,1.2078,-77.2772,Colombia,admin,410835
Chattanooga,35.066,-85.2481,United States,,410795
Bellary,15.1,76.9167,India,,410445
Bhagalpur,25.25,87,India,,410210
Danjiangkou,32.5401,111.5131,China,,409940
Kisumu,-0.1,34.75,Kenya,admin,409928
Zhangjiakou Shi Xuanhua Qu,40.5944,115.0243,China,minor,409745
Maringa,-23.425,-51.9389,Brazil,minor,409657
Manampizha,9.2972,76.65,India,,409271
Kocasinan,38.7333,35.4833,Turkey,minor,409005
Mataram,-8.5833,116.1167,Indonesia,admin,408900
Magnitogorsk,53.3833,59.0333,Russia,minor,408715
Greenville,34.8354,-82.3646,United States,,408626
Zhijiang,30.426,111.761,China,,408487
Zaria,11.0667,7.7,Nigeria,minor,408198
Lancaster,40.042,-76.3012,United States,,408023
Fenyang,37.2616,111.7699,China,,407647
Syracuse,43.0407,-76.1437,United States,,407625
Binan,14.33,121.08,Philippines,,407437
Gebze,40.8,29.4333,Turkey,minor,407019
Shashemene,7.2,38.6,Ethiopia,,407000
Fangting,31.127,104.167,China,minor,406775
Shulan,44.4059,126.9655,China,minor,406744
Wanyuan,31.9833,107.9667,China,minor,406685
Jiexiu,37.027,111.917,China,,406517
Hat Yai,7.0167,100.4667,Thailand,minor,406513
Baglar,37.9167,40.1833,Turkey,minor,406471
Sham Shui Po,22.3307,114.1622,Hong Kong,,405869
Santa Fe,-31.6333,-60.7,Argentina,admin,405683
Delhi Cantonment,28.6,77.1333,India,,405633
Cumana,10.4564,-64.1675,Venezuela,admin,405626
Fayetteville,36.0714,-94.1661,United States,,405556
Barura,23.3683,91.0484,Bangladesh,,405118
Kumi,36.1195,128.3444,"Korea, South",,404691
Nagasaki,32.7447,129.8736,Japan,admin,404656
Al Hudaydah,14.8022,42.9511,Yemen,admin,404062
Pencheng,29.676,115.681,China,,403655
Salt Lake City,22.61,88.4,India,,403316
Qazvin,36.2886,50.0069,Iran,admin,402748
Etawa,24.18,78.2,India,,402678
Sonipat,28.99,77.022,India,,402000
Jundiai,-23.1864,-46.8842,Brazil,minor,401896
Pensacola,30.4413,-87.1911,United States,,401535
Bogra,24.851,89.3711,Bangladesh,,400983
Brno,49.1925,16.6083,Czechia,admin,400566
Oskemen,49.9833,82.6167,Kazakhstan,admin,400142
Gifu,35.4232,136.7608,Japan,admin,400118
Monteria,8.75,-75.8833,Colombia,admin,400000
Maungdaw,20.8167,92.3667,Burma,,400000
Igboho,8.8333,3.75,Nigeria,minor,400000
Yuregir,36.9928,35.3764,Turkey,minor,399910
Pingquan,41.0184,118.702,China,minor,399378
Toyonaka,34.7833,135.4667,Japan,,399263
Dera Ghazi Khan,30.0331,70.64,Pakistan,minor,399064
Hatay,36.2025,36.1606,Turkey,admin,399045
Luhansk,48.5678,39.3031,Ukraine,admin,397677
Miyazaki,31.9078,131.4203,Japan,admin,397476
Dangyang,30.821,111.789,China,,397465
Quilon,8.8932,76.6141,India,,397419
Mulangodi,9,76.6167,India,,397419
Munro Turuttu,9,76.6167,India,,397419
Barinas,8.6333,-70.2,Venezuela,admin,397279
Gwangju,37.3667,127.2833,"Korea, South",,397269
Nangong,37.359,115.409,China,minor,396718
Hirakata,34.8167,135.65,Japan,,396694
Sandakan,5.843,118.108,Malaysia,,396290
Szczecin,53.4325,14.5481,Poland,admin,396168
Surgut,61.25,73.4333,Russia,minor,395900
Yongji,34.867,110.448,China,,394935
Arlington,32.6998,-97.125,United States,,394769
Karur,10.9601,78.0766,India,,394719
Betsiboka,-16.8667,46.95,Madagascar,,394561
Ijebu-Ode,6.8208,3.9208,Nigeria,minor,394246
Al Jahra',29.35,47.6833,Kuwait,,393432
Tanga,-5.0742,39.0992,Tanzania,admin,393429
Diadema,-23.6858,-46.6228,Brazil,minor,393237
Saurimo,-9.65,20.4,Angola,admin,393000
Jalna,19.841,75.8864,India,,393000
Yola,9.23,12.46,Nigeria,admin,392854
Zhugang,28.1358,121.2264,China,minor,392800
Hejin,35.596,110.712,China,,392561
Dunhua,43.3667,128.2333,China,minor,392486
Tangail,24.25,89.92,Bangladesh,,392300
Khayelitsha,-34.0403,18.6778,South Africa,,391749
Ad Diwaniyah,31.9892,44.9247,Iraq,admin,391600
Nnewi,6.0167,6.9167,Nigeria,minor,391227
San-Pedro,4.7704,-6.64,Côte d’Ivoire,admin,390654
Gujrat,32.5739,74.0789,Pakistan,minor,390533
Huili Chengguanzhen,26.6333,102.25,China,minor,390531
Yokosuka,35,16,Japan,,390275
Aurora,39.7083,-104.7237,United States,,390201
Asyut,27.1869,31.1714,Egypt,admin,389307
Gwoza,11.0861,13.6914,Nigeria,minor,388600
Sampaloc,14.6031,121.0022,Philippines,,388305
Saki,8.6667,3.4,Nigeria,minor,388225
Bologna,44.4939,11.3428,Italy,admin,387971
Aqtobe,50.2836,57.2297,Kazakhstan,admin,387807
Cilegon,-6.0027,106.0112,Indonesia,,387543
Uvinza,-5.1069,30.3839,Tanzania,,387442
Hafr al Batin,28.4337,45.9601,Saudi Arabia,,387096
Elazig,38.6744,39.2228,Turkey,admin,387072
Zanjan,36.6864,48.4953,Iran,admin,386851
Bairia,25.7583,84.1489,India,,386745
Oyo,7.8417,3.9306,Nigeria,minor,386723
Taytay,14.5692,121.1325,Philippines,,386451
Kisenzi,-4.4094,15.3425,Congo (Kinshasa),,386151
Bhatpara,22.87,88.41,India,,386019
Sintra,38.7974,-9.3904,Portugal,minor,385606
Manisa,38.6144,27.4292,Turkey,admin,385452
Sirur,18.83,74.38,India,,385414
Tarlac City,15.4869,120.59,Philippines,admin,385398
Okazaki,34.9543,137.1744,Japan,,385376
Ceel Baraf,3.2072,45.7593,Somalia,,384630
Lingxi,27.5036,120.3975,China,,384390
Ilesa,7.6167,4.7167,Nigeria,minor,384334
Kakinada,16.9661,82.255,India,,384182
Savar,23.8482,90.2577,Bangladesh,,384093
Nuevo Laredo,27.4861,-99.5069,Mexico,minor,384033
Lecheng,25.1333,113.3333,China,minor,383498
Bawshar,23.5777,58.3998,Oman,,383257
Christchurch,-43.5311,172.6361,New Zealand,admin,383200
Gusau,12.15,6.6667,Nigeria,admin,383162
Hancheng,35.4667,110.4333,China,,383097
Zetang,29.238,91.771,China,,382610
Serekunda,13.445,-16.675,"Gambia, The",,382096
Kanifing,13.4475,-16.6725,"Gambia, The",admin,382096
Canberra,-35.2931,149.1269,Australia,primary,381488
Minamisuita,34.7594,135.5169,Japan,,381238
Malabon,14.66,120.96,Philippines,admin,380522
Neiva,2.9345,-75.2809,Colombia,admin,380019
Ha Tinh,18.3333,105.9,Vietnam,admin,380000
Huancayo,-12.0667,-75.2167,Peru,admin,378203
Celaya,20.5222,-100.8122,Mexico,minor,378143
Ichinomiya,35.3039,136.8031,Japan,,378108
Iquitos,-3.75,-73.25,Peru,admin,377609
Panihati,22.69,88.37,India,,377347
Lianzhou,24.781,112.377,China,minor,377220
Cainta,14.57,121.12,Philippines,,376933
Helixi,30.6267,118.9861,China,minor,376857
Madinat as Sadis min Uktubar,29.9361,30.9269,Egypt,,376302
Mamou,10.3833,-12.0833,Guinea,admin,376269
Scranton,41.4044,-75.6649,United States,,375462
Itaquaquecetuba,-23.4864,-46.3486,Brazil,minor,375011
Cantonment,31.5167,74.3833,Pakistan,,374872
Rohtak,28.8909,76.5796,India,,374292
Maler Kotla,30.5167,75.8833,India,,374000
Bhawana,31.5661,72.6461,Pakistan,,373841
Oxnard,34.1964,-119.1815,United States,,373423
Bryansk,53.2425,34.3667,Russia,admin,373310
Lipa City,13.9411,121.1622,Philippines,,372931
Butuan,8.948,125.543,Philippines,admin,372910
Dikirnis,31.089,31.5948,Egypt,,372871
Takasaki,36.3219,139.0033,Japan,,372639
Ambon,-3.6967,128.1783,Indonesia,admin,372249
Indio,33.7346,-116.2346,United States,,371926
Malakwal,32.5531,73.2067,Pakistan,,371869
Toyohashi,34.7692,137.3915,Japan,,371507
Chitungwiza,-17.9939,31.0481,Zimbabwe,,371244
Panshi,42.95,126.0667,China,minor,370238
Az Zubayr,30.3892,47.7081,Iraq,minor,370000
Bharatpur,27.6833,84.4333,Nepal,,369377
Petare,10.4833,-66.8167,Venezuela,minor,369000
Mardan,34.2012,72.0258,Pakistan,minor,368302
Nagano,36.6486,138.1947,Japan,admin,367184
Bauru,-22.3147,-49.0606,Brazil,minor,366992
La Florida,-33.5333,-70.5833,Chile,,366916
Nicolas Romero,19.5833,-99.3667,Mexico,minor,366602
Jinshan,25.1475,101.9764,China,minor,366512
Bochum,51.4819,7.2158,Germany,minor,366385
Baguio City,16.4119,120.5933,Philippines,admin,366358
Cibinong,-6.485,106.842,Indonesia,minor,365387
Sivas,39.75,37.0167,Turkey,admin,365274
Kolga,22.35,82.68,India,,365253
Korba,22.3458,82.6963,India,,365253
Qardho,9.5004,49.166,Somalia,,365000
Rio Branco,-9.9781,-67.8117,Brazil,admin,364756
Tecamac,19.7131,-98.9683,Mexico,minor,364579
Alanya,36.55,32,Turkey,minor,364180
Mandaue City,10.33,123.93,Philippines,admin,364116
Victorville,34.5277,-117.3536,United States,,363596
Kocaeli,40.7625,29.9175,Turkey,admin,363416
Warri,5.5167,5.75,Nigeria,minor,363382
Victoria,48.4283,-123.3647,Canada,admin,363222
Wonsan,39.1475,127.4461,"Korea, North",admin,363127
Iligan,8.23,124.25,Philippines,admin,363115
Anguo,38.418,115.327,China,minor,363091
Coventry,52.4081,-1.5106,United Kingdom,,362690
Trenton,40.2237,-74.7641,United States,admin,362501
Keelung,25.1333,121.7333,Taiwan,admin,362487
Geita,-2.8714,32.2294,Tanzania,admin,361671
Ivanovo,56.9967,40.9819,Russia,admin,361644
Cuenca,-2.8974,-79.0045,Ecuador,admin,361524
Caerdydd,51.4817,-3.1792,United Kingdom,,361469
Blumenau,-26.9189,-49.0658,Brazil,minor,361261
Nanqiao,30.9167,121.4547,China,,361185
Hrodna,53.6667,23.8333,Belarus,admin,361115
Florence,43.7714,11.2542,Italy,admin,360930
Buurhakaba,2.7837,44.0833,Somalia,minor,360795
Bengkulu,-3.7956,102.2592,Indonesia,admin,360495
Caxias do Sul,-29.1678,-51.1789,Brazil,minor,360419
Malmo,55.5833,13.0333,Sweden,admin,360249
Shuanghe,30.3746,106.7903,China,minor,360000
Petion-Ville,18.5098,-72.2856,Haiti,,359615
Dengtacun,41.4333,123.3333,China,,359401
Huntsville,34.6981,-86.6412,United States,,359389
Utrecht,52.0908,5.1217,Netherlands,admin,359370
Palu,-0.895,119.8594,Indonesia,admin,359350
Sikar,27.62,75.15,India,,359293
Umuahia,5.5333,7.4833,Nigeria,admin,359230
Wuppertal,51.2667,7.1833,Germany,minor,358938
Palmira,3.5833,-76.25,Colombia,minor,358895
Alicante,38.3453,-0.4831,Spain,minor,358720
Sao Jose do Rio Preto,-20.82,-49.3789,Brazil,minor,358523
Ash Shuhada',30.5968,30.8993,Egypt,,358486
Ondo,7.0833,4.8333,Nigeria,minor,358430
Vitsyebsk,55.1917,30.2056,Belarus,admin,358395
Sasaram,24.95,84.03,India,,358283
Sultanbeyli,40.9683,29.2617,Turkey,,358201
Xunyang,32.8341,109.3653,China,,357876
Taraz,42.9,71.3667,Kazakhstan,admin,357795
Cubal,-13.0333,14.25,Angola,,357618
Anda,46.424,125.352,China,minor,357535
Luena,-11.7918,19.9062,Angola,admin,357413
Karnal,29.686,76.989,India,,357334
Gonaives,19.4456,-72.6883,Haiti,admin,356324
Vinnytsia,49.2333,28.4833,Ukraine,admin,356303
Minatitlan,17.9833,-94.55,Mexico,minor,356020
Linxia Chengguanzhen,35.6047,103.2422,China,minor,355968
Brahmapur,19.315,84.7941,India,,355823
Modesto,37.6375,-121.0028,United States,,355686
Caucaia,-3.7328,-38.6558,Brazil,minor,355679
Cabuyao,14.275,121.125,Philippines,,355330
Gedaref,14.0333,35.3833,Sudan,admin,354927
San Fernando,15.03,120.68,Philippines,admin,354666
Kawagoe,35.9251,139.4858,Japan,,354598
Pokhara,28.2097,83.9853,Nepal,admin,353841
Nice,43.7034,7.2663,France,minor,353701
Villahermosa,17.9892,-92.9281,Mexico,admin,353577
Wakayama,34.2333,135.1667,Japan,admin,353299
Mahilyow,53.9167,30.35,Belarus,admin,353110
Osh,40.5333,72.7833,Kyrgyzstan,admin,353080
Kita-ku,35.75,139.7333,Japan,,353058
Gimpo,37.7,126.6,"Korea, South",minor,352683
Corrientes,-27.4833,-58.8167,Argentina,admin,352646
Thari Mir Wah,27.0683,68.6023,Pakistan,,352491
Nara,34.6844,135.805,Japan,admin,352377
Vladimir,56.1286,40.4058,Russia,admin,352347
Sinuiju,40.1,124.4,"Korea, North",admin,352000
Oruro,-17.9667,-67.1167,Bolivia,,351802
Arkhangelsk,64.5431,40.5375,Russia,admin,351488
Batangas,13.83,121,Philippines,admin,351437
Ahmadnagar,19.08,74.73,India,,350859
Varna,43.2114,27.9111,Bulgaria,admin,350745
Tarsus,36.9165,34.8951,Turkey,minor,350732
Sariyer,41.1669,29.0572,Turkey,minor,350454
Semey,50.4333,80.2667,Kazakhstan,admin,350201
Holguin,20.8872,-76.2631,Cuba,admin,350191
Tungi,23.8915,90.4023,Bangladesh,,350000
Gode,5.9527,43.5516,Ethiopia,,350000
Sawran,36.6532,44.5441,Iraq,minor,350000
An Nhon,13.917,109.083,Vietnam,minor,350000
Olinda,-8.0089,-34.855,Brazil,minor,349976
Praia Grande,-24.0058,-46.4028,Brazil,minor,349935
Shinjuku,35.7014,139.7097,Japan,,349385
Antofagasta,-23.65,-70.4,Chile,admin,348517
Meram,37.8364,32.4383,Turkey,minor,348325
Cascavel,-24.9558,-53.4553,Brazil,minor,348051
Pamukkale,37.9167,29.1167,Turkey,,347926
Canoas,-29.92,-51.18,Brazil,minor,347657
Takatsuki,34.8461,135.6175,Japan,,347496
Yidu,30.378,111.45,China,,347388
Antonio Enes,-16.2308,39.9105,Mozambique,,347175
Plovdiv,42.1434,24.751,Bulgaria,admin,346893
Central Coast,-33.3,151.2,Australia,,346596
Honolulu,21.3294,-157.846,United States,admin,346323
Karsiyaka,38.4594,27.1153,Turkey,minor,346264
Shahjanpur,27.88,79.91,India,,346103
Gwagwalada,8.9392,7.0758,Nigeria,minor,346000
Avadi,13.1147,80.1098,India,,345996
Tanch'on,40.458,128.911,"Korea, North",,345875
Greensboro,36.0956,-79.8271,United States,,345858
Khanapur,15.6394,74.5083,India,,345839
Wad Medani,14.4,33.51,Sudan,admin,345290
Fort Wayne,41.0888,-85.1436,United States,,345279
Kusti,13.17,32.66,Sudan,,345068
Belfast,54.5967,-5.93,United Kingdom,,345006
Cuddapah,14.47,78.82,India,,344893
Nakano,35.7074,139.6638,Japan,,344880
Yong'an,25.942,117.365,China,minor,344793
Alamadi,13.1097,80.0972,India,,344701
Carapicuiba,-23.5228,-46.8358,Brazil,minor,344596
Anaheim,33.839,-117.8574,United States,,344553
Brest,52.1347,23.6569,Belarus,admin,344470
Otsu,35.0167,135.85,Japan,admin,343991
Maseru,-29.31,27.48,Lesotho,primary,343541
Pavlodar,52.3,76.95,Kazakhstan,admin,343091
Chon Buri,13.3611,100.985,Thailand,admin,342959
Naga City,13.6244,123.1864,Philippines,admin,342769
Vahdat,38.5531,69.0206,Tajikistan,minor,342700
Florianopolis,-27.5933,-48.553,Brazil,admin,342315
Paulista,-7.9408,-34.8728,Brazil,minor,342167
Sfax,34.74,10.76,Tunisia,admin,341999
Rajahmundry,16.98,81.78,India,,341831
Koshigaya,35.8911,139.7909,Japan,,341784
Hongjiang,27.191,109.819,China,,341706
Yesilyurt,38.2961,38.2489,Turkey,minor,341654
Vung Tau,10.3833,107.1167,Vietnam,minor,341552
Jeonju,35.8167,127.15,"Korea, South",admin,341545
Alwar,27.5498,76.6355,India,,341422
Huadian,42.972,126.746,China,,341308
Tokorozawa,35.7996,139.4686,Japan,,341289
Sumqayit,40.5961,49.67,Azerbaijan,admin,341200
Vitoria da Conquista,-14.8661,-40.8394,Brazil,minor,341128
Yamoussoukro,6.8161,-5.2742,Côte d’Ivoire,primary,340234
Buon Ma Thuot,12.6667,108.05,Vietnam,admin,340000
Corpus Christi,27.7254,-97.3767,United States,,339432
Fort Collins,40.5477,-105.0656,United States,,339256
Mishan,45.5298,131.8466,China,minor,339103
Makiivka,48.0556,37.9611,Ukraine,minor,338968
Islip,40.7385,-73.1888,United States,,338784
Cuernavaca,18.9186,-99.2342,Mexico,admin,338650
Markham,43.8767,-79.2633,Canada,,338503
Bielefeld,52.0211,8.5347,Germany,minor,338410
Bydgoszcz,53.1219,18.0003,Poland,admin,337666
Chinju,35.2,128.0833,"Korea, South",,337230
Reading,51.4542,-0.9731,United Kingdom,,337108
Randburg,-26.0936,28.0064,South Africa,,337053
Iwaki,37.0505,140.8877,Japan,,336111
Oshawa,43.9,-78.85,Canada,,335949
Bonn,50.7353,7.1022,Germany,minor,335789
Sambalpur,21.47,83.97,India,,335761
Santo Domingo de los Colorados,-0.2542,-79.1719,Ecuador,admin,334826
Uruapan,19.4208,-102.0628,Mexico,minor,334749
Lublin,51.25,22.5667,Poland,admin,334681
Porto Velho,-8.7619,-63.9039,Brazil,admin,334661
Licheng,24.5,110.4,China,minor,334527
Huichang,34.9073,112.7914,China,minor,334213
Tampere,61.4981,23.76,Finland,admin,334112
Antioch,37.9787,-121.796,United States,,333347
Muzaffarpur,26.1225,85.3906,India,,333200
Chita,52.05,113.4667,Russia,admin,333159
Vina del Mar,-33.0244,-71.5517,Chile,,332875
Khipro,25.823,69.377,Pakistan,,332833
Asan,36.7836,127.0042,"Korea, South",,332790
Nukus,42.4667,59.6,Uzbekistan,admin,332500
Chak Jhumra,31.5667,73.1833,Pakistan,,332461
Simferopol,44.9519,34.1022,Ukraine,admin,332317
Konak,38.4189,27.1285,Turkey,minor,332277
Soledad de Graciano Sanchez,22.1833,-100.9333,Mexico,minor,332072
Salalah,17.0197,54.0897,Oman,admin,331949
Santarem,-2.4431,-54.7083,Brazil,,331937
Yanbu`,24.0523,38.1503,Saudi Arabia,,331916
Maebashi,36.3895,139.0634,Japan,admin,331849
Kaluga,54.55,36.2833,Russia,admin,331842
Ganca,40.6828,46.3606,Azerbaijan,admin,331400
Asahikawa,43.7667,142.3667,Japan,,331392
Jackson,32.3157,-90.2125,United States,admin,331332
Kendari,-3.9907,122.5086,Indonesia,admin,331013
Wonju,37.3417,127.9208,"Korea, South",,330854
Birkat as Sab`,30.6291,31.0824,Egypt,,330847
Lafia,8.4917,8.5167,Nigeria,admin,330712
Dahuk,36.85,42.9833,Iraq,admin,330600
Nizhniy Tagil,57.9167,59.9667,Russia,minor,330507
Finglas,53.3892,-6.2969,Ireland,,330506
Kamarhati,22.6686,88.3704,India,,330211
Nicosia,35.1725,33.365,Cyprus,primary,330000
Lengshuijiang,27.686,111.436,China,,329912
Ribeirao das Neves,-19.7669,-44.0869,Brazil,minor,329794
Guediawaye,14.7724,-17.3884,Senegal,,329659
Ciudad Obregon,27.4939,-109.9389,Mexico,minor,329404
Campiernagar,27.029,83.2668,India,,329104
Phatthaya,12.9357,100.889,Thailand,,328961
Minzhu,43.7238,127.3448,China,minor,328925
Belgorod,50.6,36.6,Russia,admin,328482
Gomez Palacio,25.5611,-103.4983,Mexico,minor,327985
Bijapur,16.83,75.71,India,,327427
Cabanatuan City,15.4908,120.9678,Philippines,,327325
Si Racha,13.174,100.93,Thailand,minor,327172
Salamanca,20.5703,-101.1972,Mexico,minor,327169
Ratnagiri,16.9944,73.3,India,,327120
Ulanhot,46.0722,122.0933,China,,327081
Chipata,-13.6453,32.6464,Zambia,admin,327059
Koriyama,37.4004,140.3597,Japan,,327040
Yunzhong,39.8279,113.1,China,minor,326849
Fayetteville,35.085,-78.9772,United States,,326821
Arnavutkoy,41.1856,28.7406,Turkey,,326452
Kucukcekmece,41,28.8,Turkey,minor,326452
Roodepoort,-26.1625,27.8725,South Africa,,326416
Pucallpa,-8.3833,-74.55,Peru,admin,326040
San Pedro,14.3583,121.0583,Philippines,,326001
Myrtle Beach,33.7094,-78.8844,United States,,325829
Kochi,33.5589,133.5314,Japan,admin,325535
Jagdalpur,19.18,81.92,India,,325463
Rampur,28.8,79,India,,325248
Kuching,1.53,110.33,Malaysia,admin,325132
Cotabato,7.22,124.25,Philippines,admin,325079
Nantes,47.2181,-1.5528,France,admin,325070
Henderson,36.0133,-115.0381,United States,,324523
Cariacica,-20.2639,-40.42,Brazil,minor,324285
Mobile,30.6782,-88.1162,United States,,324067
Nazret,8.5414,39.2689,Ethiopia,,324000
Safi,32.2833,-9.2333,Morocco,,323888
Kikuyu,-1.2463,36.6629,Kenya,,323881
Cordoba,37.89,-4.78,Spain,minor,323763
Kluang,2.0383,103.3179,Malaysia,,323762
Mekele,13.4969,39.4769,Ethiopia,admin,323700
Pelotas,-31.7719,-52.3428,Brazil,minor,323158
Vaughan,43.8333,-79.5,Canada,,323103
Kaiyuan,23.7111,103.2461,China,,323031
Tangdong,25.973,113.231,China,minor,322990
Munster,51.9625,7.6256,Germany,minor,322904
Vitoria,-20.3106,-40.2972,Brazil,admin,322869
Shimoga,13.9333,75.5667,India,,322650
Uige,-7.6167,15.05,Angola,admin,322531
Hotan,37.1167,79.9167,China,minor,322300
Minna,9.6139,6.5569,Nigeria,admin,322163
Ning'an,44.341,129.483,China,minor,322127
Camaguey,21.3786,-77.9186,Cuba,admin,321992
Taourirt,34.4169,-2.885,Morocco,,321876
San Salvador de Jujuy,-24.1833,-65.3,Argentina,admin,321789
Kashipur,29.22,78.95,India,,321623
Thu Dau Mot,10.9667,106.65,Vietnam,admin,321607
Serra,-20.1289,-40.3078,Brazil,minor,321181
Lexington,38.0423,-84.4587,United States,,321122
La Paz,-16.4958,-68.1333,Bolivia,primary,321073
Sukabumi,-6.9181,106.9315,Indonesia,,320970
Menongue,-14.6556,17.6842,Angola,admin,320914
Okene,7.5619,6.2411,Nigeria,minor,320260
Junagadh,21.5222,70.4579,India,,320250
Guasavito,25.5744,-108.4706,Mexico,,320000
Kaech'on,39.6986,125.9061,"Korea, North",,319554
Tehuacan,18.4617,-97.3928,Mexico,minor,319375
Coatzacoalcos,18.1414,-94.4344,Mexico,minor,319187
Saint-Denis,-20.8789,55.4481,Reunion,primary,319141
Muhanga,-2.0845,29.7527,Rwanda,,319141
Zalantun,48.027,122.708,China,minor,318933
Hafizabad,32.0714,73.6878,Pakistan,minor,318621
Katsina,12.25,7.5,Nigeria,admin,318459
Puerto Plata,19.8,-70.6833,Dominican Republic,minor,318419
Gwangmyeongni,37.476,126.866,"Korea, South",,318021
Lansing,42.7142,-84.5601,United States,admin,318001
Taubate,-23.0333,-45.55,Brazil,minor,317915
Zhengjiatun,43.5183,123.5027,China,minor,317758
Port Moresby,-9.4789,147.1494,Papua New Guinea,primary,317374
Fontibon,4.6786,-74.1411,Colombia,,317179
Hapur,28.7309,77.7757,India,,317004
Mannheim,49.4878,8.4661,Germany,minor,316877
Barueri,-23.5111,-46.8764,Brazil,minor,316473
Savannah,32.0286,-81.1821,United States,,316446
Naha,26.2122,127.6792,Japan,admin,316048
Bari,41.1253,16.8667,Italy,admin,316015
Pattikad,10.5276,76.2144,India,,315957
Xiaoli,22.6721,113.2509,China,,315820
Youngstown,41.0993,-80.6463,United States,,315751
Trichur,10.5276,76.2144,India,,315596
Yingzhong,32.237,119.815,China,,315462
Bor,6.2072,31.5591,South Sudan,admin,315351
Volzhskiy,48.8056,44.7417,Russia,minor,315220
San Miguelito,9.0503,-79.4707,Panama,minor,315019
N'Zerekore,7.7522,-8.8217,Guinea,admin,315000
Balikesir,39.6333,27.8833,Turkey,admin,314958
Espoo,60.2056,24.6556,Finland,minor,314821
Muar,2.0337,102.5666,Malaysia,,314776
Ann Arbor,42.2759,-83.731,United States,,314647
Kasur,31.1167,74.45,Pakistan,minor,314617
Usme,4.4464,-74.1522,Colombia,,314431
Barddhaman,23.2333,87.8667,India,,314265
Sousse,35.8333,10.6333,Tunisia,admin,314071
Kingston upon Hull,53.7444,-0.3325,United Kingdom,,314018
Binangonan,14.4514,121.1919,Philippines,,313631
Attiecoube,5.3453,-4.035,Côte d’Ivoire,,313135
Podolsk,55.4311,37.5456,Russia,minor,312911
Smolensk,54.7828,32.0453,Russia,admin,312896
Jiayuguan,39.7732,98.2882,China,minor,312663
Pasir Gudang,1.462,103.9053,Malaysia,,312499
Vologda,59.2167,39.9,Russia,admin,312420
Gorgan,36.8369,54.4372,Iran,admin,312223
Tanza,14.3944,120.8531,Philippines,,312116
Yakutsk,62.03,129.73,Russia,admin,311760
Santa Ana,33.7367,-117.8819,United States,,311639
Catania,37.5027,15.0873,Italy,minor,311584
Panvel,18.9944,73.1139,India,,311434
Guaruja,-23.9936,-46.2564,Brazil,minor,311230
Nizamabad,18.672,78.094,India,,311152
Quy Nhon,13.7667,109.2333,Vietnam,admin,311000
Kurgan,55.4667,65.35,Russia,admin,310911
Saransk,54.1833,45.1833,Russia,admin,310898
Ha'il,27.5167,41.6833,Saudi Arabia,admin,310897
Datang,22.9406,113.9436,China,,310889
Longquan,25.9106,114.786,China,,310700
Mitchells Plain,-34.0506,18.6181,South Africa,,310485
Yokkaichi,34.965,136.6244,Japan,,310263
Chalco,19.2647,-98.8975,Mexico,minor,310130
Karlsruhe,49.0092,8.404,Germany,minor,309964
Shahriar,35.6531,51.06,Iran,minor,309607
Shahr-e Qods,35.7103,51.1131,Iran,minor,309605
Ciudad del Este,-25.5167,-54.6161,Paraguay,admin,308983
Tabora,-5.0167,32.8,Tanzania,admin,308741
Ciudad Benito Juarez,25.65,-100.0833,Mexico,minor,308285
Beian,48.25,126.5167,China,minor,308237
Irvine,33.6772,-117.7738,United States,,308160
Hisor,38.5264,68.5381,Tajikistan,minor,308100
Nakuru,-0.2833,36.0667,Kenya,admin,307990
Karawang,-6.3125,107.295,Indonesia,minor,307880
Sariwon,38.5064,125.7597,"Korea, North",admin,307764
St. Paul,44.9478,-93.1039,United States,admin,307762
Poughkeepsie,41.695,-73.9211,United States,,307738
Battalgazi,38.4228,38.3656,Turkey,minor,307478
Nghi Son,19.417,105.75,Vietnam,,307304
Guangming,45.3333,122.7833,China,minor,307215
Newark,40.7245,-74.1725,United States,,307188
Parbhani,19.27,76.78,India,,307170
Montpellier,43.6119,3.8772,France,minor,307101
Puerto Princesa,9.75,118.75,Philippines,admin,307079
Hisar,29.15,75.7,India,,307024
Montes Claros,-16.7322,-43.8636,Brazil,minor,306947
Betim,-19.9678,-44.1978,Brazil,minor,306675
Windsor,42.2833,-83,Canada,,306519
Kasugai,35.2475,136.9722,Japan,,306449
Ciudad Santa Catarina,25.6833,-100.45,Mexico,minor,306322
Fatehpur,27.98,74.95,India,,305638
Birania,27.98,74.95,India,,305638
Ciudad Victoria,23.7389,-99.1431,Mexico,admin,305155
Kaunas,54.9,23.9333,Lithuania,admin,305120
Playa del Carmen,20.6281,-87.0755,Mexico,minor,304942
Yonghetun,39.9131,116.6458,China,,304781
Kashan,33.9825,51.4325,Iran,minor,304487
La Pena,19.3606,-98.9417,Mexico,,304088
Sumbawanga,-7.9667,31.6167,Tanzania,admin,303986
Vila Nova de Gaia,41.1333,-8.6167,Portugal,minor,303824
Orel,52.9686,36.0694,Russia,admin,303696
Vladikavkaz,43.04,44.6775,Russia,admin,303597
Sao Vicente,-23.9664,-46.3861,Brazil,minor,303551
Karaikkudi,10.0735,78.7732,India,,303291
Augsburg,48.3689,10.8978,Germany,minor,303150
Panjakent,39.5,67.6167,Tajikistan,minor,303000
Akita,39.72,140.1026,Japan,admin,302984
Lachhmangarh Sikar,27.8225,75.0253,India,,302956
Kurume,33.3192,130.5083,Japan,,302858
Az Zaqaziq,30.5667,31.5,Egypt,admin,302840
Palmas,-10.1886,-48.3336,Brazil,admin,302692
Bahia Blanca,-38.7167,-62.2667,Argentina,minor,301572
Al Waqf,26.0866,32.4226,Egypt,,301486
San Bernardo,-33.5833,-70.7,Chile,minor,301313
